ID,Name,Longitude,Latitude,Lines
1001,ABERDEEN at CHEDOKE,-79.89642,43.25186,
1002,ABERDEEN at COTTAGE,-79.89037,43.25037,
1005,ABERDEEN at DUNDURN,-79.89297,43.25095,
1004,ABERDEEN at DUNDURN,-79.89235,43.25097,
1007,ABERDEEN at KENT,-79.88562,43.24928,
1006,ABERDEEN at KENT,-79.88538,43.24937,
1008,ABERDEEN at LOCKE,-79.88788,43.24996,
1009,ABERDEEN at LONGWOOD,-79.90177,43.25336,
2454,ABERDEEN at QUEEN,-79.88349,43.24900,
1012,ABERDEEN at SPRUCESIDE,-79.88375,43.24883,
1013,ABERDEEN at STUDHOLME,-79.89944,43.25259,
1015,ABERDEEN at UNDERMOUNT,-79.88774,43.24976,
1011,ABERDEEN opposite CHEDOKE,-79.89658,43.25200,
1003,ABERDEEN opposite COTTAGE,-79.89012,43.25046,
1010,ABERDEEN opposite LONGWOOD,-79.90147,43.25311,
1014,ABERDEEN opposite STUDHOLME,-79.89956,43.25280,
355835,AIRPORT at CANADIAN WARPLANE HERITAGE,-79.92671,43.15923,
355463,AIRPORT at HOMESTEAD,-79.91472,43.15634,
355462,AIRPORT at HOMESTEAD,-79.91446,43.15641,
355836,AIRPORT opposite CANADIAN WARPLANE HERITAGE,-79.92663,43.15912,
355464,AIRPORT PASSENGER TERMINAL,-79.92659,43.16313,
356069,ALDERSHOT GO STATION PLATFORM 10,-79.85652,43.31296,
355340,ALDERSHOT GO VIA STATION PLATFORM 10,-79.85652,43.31296,
1020,AMBERLY at COTTINGHAM WEST,-79.98930,43.20674,
1021,AMBERLY at FIDDLERS GREEN,-79.98447,43.20765,
1022,AMBERLY at LEITH COURT,-79.98976,43.20678,
1023,AMBERLY at MELANIE WEST,-79.99398,43.20667,
1019,AMBERLY at SUNNYMEADE,-79.99909,43.20739,
1025,AMBERLY at WILSON,-79.99926,43.20931,
1017,AMBERLY opposite BLOOMSBURY,-79.98516,43.20756,
1018,AMBERLY opposite CHIPPENDALE,-79.99900,43.20770,
1024,AMBERLY opposite MELANIE WEST,-79.99366,43.20686,
1026,ANCHOR opposite BIGWIN,-79.82374,43.19315,
1027,ANSON at GARNER,-79.97865,43.20279,
1031,ARKLEDUN at KINGSWAY,-79.86859,43.24701,
1030,ARKLEDUN at KINGSWAY,-79.86859,43.24701,
1029,ARKLEDUN opposite KINGSWAY,-79.86862,43.24721,
1028,ARKLEDUN opposite KINGSWAY,-79.86862,43.24721,
1035,ARVIN at FRUITLAND,-79.69935,43.22552,
2047,At 100 MACKLIN,-79.89509,43.26614,
3165,At 1039 WILSON,-79.95511,43.24223,
2326,At 105 NASH,-79.77544,43.22605,
3152,At 1060 WILSON,-80.01538,43.20002,
2983,At 1069 UPPER WELLINGTON,-79.87394,43.22100,
2885,At 1190 UPPER OTTAWA,-79.83814,43.20506,
3143,At 1221 WILSON,-79.94732,43.24543,
355279,At 122 MARTINDALE,-79.94459,43.22898,
2180,At 122 MARTINDALE,-79.94456,43.22901,
3146,At 1265 WILSON,-79.94559,43.24567,
2258,At 1269 MOHAWK,-79.93217,43.23323,
355372,At 1275 RYMAL,-79.83703,43.18877,
355404,At 1280 RYMAL,-79.83617,43.18849,
2257,At 1288 MOHAWK,-79.93168,43.23312,
355465,At 1290 CORMORANT,-80.02050,43.18897,
2674,At 1320 STONE CHURCH EAST,-79.83160,43.19701,
355539,At 1325 CORMORANT,-80.02551,43.18777,
1196,At 1330 BURLINGTON,-79.80934,43.25949,
355543,At 1349 SANDHILL,-80.02785,43.19247,
2015,At 1350 LIMERIDGE,-79.82377,43.20469,
355534,At 1354 SANDHILL,-80.02779,43.19276,
355541,At 1362 OSPREY,-80.02629,43.19040,
355536,At 1363  OSPREY,-80.02641,43.19046,
1514,At 1440 GARTH,-79.90928,43.21418,
355751,At 1441 UPPER JAMES,-79.89045,43.20821,
2790,At 1441 UPPER JAMES,-79.89045,43.20821,
355752,At 1452 UPPER JAMES,-79.89062,43.20819,
2791,At 1452 UPPER JAMES,-79.89062,43.20819,
2736,At 1475 UPPER GAGE,-79.85148,43.19861,
2021,At 150 LIMERIDGE,-79.89228,43.22174,
2684,At 1520 STONE CHURCH,-79.82235,43.19482,
2861,At 1527 UPPER OTTAWA,-79.84272,43.19356,
355824,At 1651 WATERDOWN,-79.87262,43.32121,
1199,At 1755 BURLINGTON,-79.78987,43.25686,
2333,At 180 NEBO,-79.83711,43.19324,
1200,At 1818 BURLINGTON,-79.78726,43.25660,
1201,At 1835 BURLINGTON,-79.78718,43.25697,
2022,At 190 LIMERIDGE,-79.89405,43.22219,
1501,At 194 GAGE,-79.83113,43.24232,
2118,At 1950 MAIN,-79.94225,43.24868,
2023,At 195 LIMERIDGE,-79.89422,43.22211,
2119,At 1983 MAIN,-79.94314,43.24720,
355782,At 198 BARTON,-79.73673,43.23180,
2120,At 2000 MAIN,-79.94343,43.24709,
1154,At 203 BEACH,-79.77556,43.26897,
355850,At 211 PRITCHARD,-79.81850,43.19552,
355470,At 2260 RYMAL,-79.77935,43.17381,
355292,At 240 STONE CHURCH,-79.90054,43.21403,
1038,At 2434 BARTON,-79.76207,43.23738,
1468,At 250 FENNELL,-79.88864,43.24049,
1867,At 251 KING,-79.73848,43.21690,
1040,At 2553 BARTON,-79.75504,43.23561,
1868,At 256 KING,-79.73811,43.21674,
2260,At 261 MOHAWK,-79.89125,43.23074,
2261,At 263 MOHAWK,-79.89161,43.23082,
1893,At 2673 KING,-79.77968,43.22203,
2025,At 273 LIMERIDGE,-79.89767,43.22295,
1042,At 2772 BARTON,-79.74499,43.23334,
1609,At 291 GRAYS,-79.74080,43.23141,
1610,At 298 GRAYS,-79.74068,43.23135,
355777,At 307 HIGHWAY 8,-79.73083,43.22027,
1299,At 370 CHARLTON,-79.88907,43.25396,
1494,At 377 GAGE,-79.82331,43.26079,
3113,At 431 WHITNEY,-79.93875,43.25129,
1304,At 47 CHATHAM,-79.88838,43.25466,
1691,At 490 HIGHWAY 8,-79.71635,43.21639,
355910,At 50 HORSESHOE,-79.91587,43.31637,
355871,At 50 HORSESHOE,-79.91587,43.31637,
2001,At 50 LAWRENCE,-79.83119,43.23884,
2433,At 549 PLAINS,-79.87000,43.29290,
1033,At 560 ARVIN,-79.70632,43.22717,
1034,At 576 ARVIN,-79.70427,43.22668,
1032,At 596 ARVIN,-79.70231,43.22623,
1666,At 610 HIGHWAY 8,-79.70694,43.21406,
1667,At 613 HIGHWAY 8,-79.70664,43.21416,
2863,At 633 UPPER OTTAWA,-79.83029,43.22345,
2864,At 638 UPPER OTTAWA,-79.83055,43.22329,
2545,At 70 RICE,-79.91673,43.23534,
2956,At 727 UPPER SHERMAN,-79.85021,43.22518,
2262,At 760 MOHAWK,-79.92072,43.23374,
1215,At 796 BURLINGTON,-79.82971,43.26460,
2737,At 801 UPPER GAGE,-79.84239,43.22009,
2219,At 831 MOHAWK,-79.83511,43.21722,
3030,At 841 UPPER WENTWORTH,-79.86226,43.22213,
3031,At 848 UPPER WENTWORTH,-79.86261,43.22211,
2738,At 877 UPPER GAGE,-79.84340,43.21774,
2264,At 924 MOHAWK,-79.92679,43.23359,
2491,At 940 QUEENSTON,-79.75252,43.22527,
2492,At 943 QUEENSTON,-79.75280,43.22554,
1983,At 944 LAKESHORE,-79.79872,43.30353,
2218,At 977 MOHAWK,-79.82719,43.21535,
3189,At WOODLAND CEMETERY,-79.87902,43.28692,
1036,AUGUSTA at JAMES,-79.87046,43.25199,
1037,AUGUSTA at JOHN,-79.86880,43.25160,
1043,BARTON at ADELINE,-79.79103,43.24559,
1044,BARTON at AGNES,-79.81272,43.25058,
1129,BARTON at APPLE,-79.72605,43.22887,
1045,BARTON at BARNESDALE,-79.83334,43.25571,
1046,BARTON at BARNESDALE,-79.83320,43.25582,
1051,BARTON at BIRCH,-79.84002,43.25745,
1052,BARTON at BIRCH,-79.83963,43.25750,
1053,BARTON at BOW VALLEY,-79.74829,43.23397,
1055,BARTON at BROCKLEY,-79.74686,43.23395,
1056,BARTON at CAVELL,-79.82420,43.25334,
1057,BARTON at CAVELL,-79.82381,43.25341,
1058,BARTON at CENTENNIAL,-79.76154,43.23704,
1059,BARTON at CENTENNIAL,-79.76006,43.23681,
1088,BARTON at CHAPPLE,-79.82838,43.25457,
1060,BARTON at CHESTNUT,-79.83807,43.25691,
1061,BARTON at COPE,-79.80185,43.24814,
1062,BARTON at COPE,-79.80147,43.24822,
1063,BARTON at COVINGTON,-79.75747,43.23622,
355928,BARTON at DEWITT,-79.71094,43.22493,
1131,BARTON at DEWITT,-79.70975,43.22476,
1064,BARTON at EARL,-79.83782,43.25700,
1132,BARTON at EASTDALE,-79.73469,43.23134,
1065,BARTON at EMERALD,-79.85077,43.26044,
1066,BARTON at EMERALD,-79.85103,43.26036,
355413,BARTON at FAIRFIELD,-79.79880,43.24747,
1069,BARTON at FERGUSON,-79.85839,43.26220,
1068,BARTON at FERGUSON,-79.85855,43.26242,
1071,BARTON at FREDERICK,-79.81110,43.25023,
355746,BARTON at FRUITLAND,-79.70063,43.22261,
1073,BARTON at GAGE,-79.82636,43.25385,
1074,BARTON at GAGE,-79.82646,43.25402,
1076,BARTON at GRAYS,-79.73987,43.23257,
1075,BARTON at GRAYS,-79.74082,43.23256,
1135,BARTON at GREEN,-79.72994,43.22993,
1136,BARTON at GREEN,-79.73017,43.23022,
1137,BARTON at HALE,-79.72297,43.22800,
1078,BARTON at HARMONY,-79.80417,43.24883,
1077,BARTON at HARMONY,-79.80432,43.24872,
1139,BARTON at HILTON,-79.72507,43.22875,
355801,BARTON at HUGHSON,-79.86433,43.26375,
1079,BARTON at HUGHSON,-79.86433,43.26375,
356011,BARTON at JOHN,-79.86251,43.26321,
1082,BARTON at KENILWORTH,-79.80686,43.24949,
1081,BARTON at KENILWORTH,-79.80645,43.24919,
1083,BARTON at KENORA,-79.76576,43.23802,
1084,BARTON at KENORA,-79.76520,43.23809,
1086,BARTON at LAKE,-79.75238,43.23503,
1085,BARTON at LAKE,-79.75297,43.23492,
1141,BARTON at LEASIDE,-79.71656,43.22649,
1087,BARTON at LEINSTER,-79.82879,43.25452,
1089,BARTON at LINCOLN,-79.82140,43.25284,
1091,BARTON at LOTTRIDGE,-79.83108,43.25530,
1093,BARTON at MARY,-79.86034,43.26266,
1092,BARTON at MARY,-79.86049,43.26287,
355811,BARTON at MELROSE,-79.83041,43.25500,
1144,BARTON at MILLEN,-79.71923,43.22718,
1143,BARTON at MILLEN,-79.71988,43.22712,
1094,BARTON at MILTON,-79.84144,43.25798,
2316,BARTON at NASH,-79.77109,43.23922,
1095,BARTON at NASH,-79.77100,43.23920,
1096,BARTON at NASH,-79.77139,43.23944,
1097,BARTON at OSBORNE,-79.77617,43.24237,
356102,BARTON at OTTAWA,-79.81589,43.25130,
1099,BARTON at OTTAWA,-79.81583,43.25139,
1101,BARTON at PARKDALE,-79.78892,43.24508,
1145,BARTON at PURITAN,-79.71385,43.22567,
1103,BARTON at ROBINS,-79.80833,43.24962,
1106,BARTON at ROSSLYN,-79.81954,43.25237,
1105,BARTON at ROSSLYN,-79.81933,43.25217,
1108,BARTON at SANFORD,-79.84320,43.25831,
1107,BARTON at SANFORD,-79.84374,43.25860,
1110,BARTON at SHERMAN,-79.83598,43.25652,
1109,BARTON at SHERMAN,-79.83632,43.25642,
1112,BARTON at ST. MATTHEWS,-79.84843,43.25983,
1114,BARTON at STRATHEARNE,-79.79638,43.24686,
1113,BARTON at STRATHEARNE,-79.79705,43.24687,
1115,BARTON at TALBOT,-79.77485,43.24189,
1116,BARTON at TOLTON,-79.79451,43.24628,
1117,BARTON at VARGA,-79.74659,43.23370,
1118,BARTON at VICTORIA,-79.85353,43.26112,
355505,BARTON at VICTORIA,-79.85298,43.26087,
1121,BARTON at WAVERLY,-79.77818,43.24255,
1122,BARTON at WAVERLY,-79.77763,43.24270,
1124,BARTON at WELLINGTON,-79.85568,43.26168,
1125,BARTON at WELLINGTON,-79.85570,43.26155,
1126,BARTON at WENTWORTH,-79.84568,43.25916,
1127,BARTON at WENTWORTH,-79.84567,43.25897,
355288,BARTON opposite BELL MANOR,-79.74319,43.23316,
1054,BARTON opposite BOW VALLEY,-79.74834,43.23422,
1130,BARTON opposite CHELSEA,-79.70357,43.22331,
1102,BARTON opposite COVINGTON,-79.75857,43.23628,
1133,BARTON opposite EASTDALE,-79.73415,43.23137,
1067,BARTON opposite FAIRFIELD,-79.79852,43.24725,
1070,BARTON opposite FRASER,-79.81319,43.25089,
1072,BARTON opposite FREDERICK,-79.81138,43.25048,
1138,BARTON opposite HALE,-79.72265,43.22807,
1140,BARTON opposite LEASIDE,-79.71651,43.22627,
1050,BARTON opposite LINCOLN,-79.82169,43.25276,
1146,BARTON opposite PURITAN,-79.71420,43.22590,
1104,BARTON opposite ROBINS,-79.80894,43.24995,
1111,BARTON opposite ST. MATTHEWS,-79.84855,43.25972,
1120,BARTON opposite WALTER,-79.79324,43.24612,
355565,BAY at KING,-79.87358,43.25824,
355566,BAY at KING,-79.87358,43.25824,
1149,BAY at VINE,-79.87270,43.26054,
1147,BAY opposite GEORGE,-79.87400,43.25722,
355448,BAY opposite GEORGE,-79.87400,43.25722,
355454,BAY opposite GEORGE,-79.87400,43.25722,
1175,BEACH at ALBEMARLE,-79.82227,43.25769,
1176,BEACH at ALBEMARLE,-79.82236,43.25780,
1177,BEACH at BAYFIELD,-79.80938,43.25591,
1161,BEACH at COMET,-79.78459,43.28033,
1158,BEACH at EASTPORT,-79.79345,43.29382,
1152,BEACH at FITCH,-79.77854,43.27245,
1159,BEACH at FOURTH,-79.78930,43.28750,
355964,BEACH at HAMILTON BEACH RESCUE UNIT,-79.77847,43.27209,
1163,BEACH at LOCARNO,-79.78698,43.28420,
1164,BEACH at LOCARNO,-79.78742,43.28454,
1179,BEACH at OTTAWA,-79.81565,43.25499,
1165,BEACH at PANDORA,-79.79125,43.29107,
1166,BEACH at REMBE,-79.78629,43.28282,
1180,BEACH at ROWANWOOD,-79.82060,43.25698,
1167,BEACH at SIERRA,-79.78188,43.27680,
1169,BEACH at THIRD,-79.79018,43.28916,
1171,BEACH at TOWERS,-79.78030,43.27446,
1173,BEACH at VAN WAGNERS BEACH,-79.77237,43.26543,
1174,BEACH at VAN WAGNERS BEACH,-79.77250,43.26530,
1181,BEACH at WOODLEIGH,-79.81089,43.25588,
1156,BEACH opposite COMET,-79.78429,43.28017,
355457,BEACH opposite DIEPPE MEMORIAL,-79.79190,43.29188,
1160,BEACH opposite FOURTH,-79.78931,43.28720,
1178,BEACH opposite GATE 3,-79.81742,43.25568,
1153,BEACH opposite PANDORA,-79.79113,43.29049,
356111,BEACH opposite SIERRA,-79.78148,43.27601,
355938,BEACH opposite SKYWAY PARK,-79.77555,43.26873,
1170,BEACH opposite THIRD,-79.79035,43.28903,
1172,BEACH opposite TOWERS,-79.78010,43.27448,
1162,BEACH opposite WINDERMERE,-79.78568,43.28222,
1182,BELAND at DUNSMURE,-79.78757,43.23710,
356055,BELL MANOR LOOP PLATFORM 1,-79.74272,43.23293,
1048,BELL MANOR LOOP PLATFORM 2,-79.74279,43.23289,
1184,BOLD at JAMES,-79.87117,43.25263,
remix-d13ddc13-0466-485e-9f0e-a0a1a5c03d11,Bond at James,-79.97194,43.27051,
1185,BOND at KING,-79.97088,43.27148,
1188,BOTANICAL at SPRING GARDENS,-79.87584,43.28861,
1191,BRITANNIA at FAIRFIELD,-79.80011,43.24437,
1190,BRITANNIA at FAIRFIELD,-79.80041,43.24431,
1192,BRITANNIA at STRATHEARNE,-79.79848,43.24388,
1193,BRITANNIA at TRAGINA,-79.80227,43.24474,
356053,BRITANNIA opposite COPE,-79.80302,43.24503,
355890,BURKE at HUMPHREY,-79.88176,43.33833,
355857,BURKE at HUMPHREY,-79.88176,43.33833,
1202,BURLINGTON at BIRCH,-79.83435,43.26548,
1204,BURLINGTON at BIRMINGHAM,-79.82538,43.26354,
356057,BURLINGTON at DOFASCO,-79.80687,43.25939,
1197,BURLINGTON at DOFASCO DR,-79.80732,43.25904,
356085,BURLINGTON at FERGUSON,-79.85482,43.27125,
1207,BURLINGTON at FERGUSON,-79.85465,43.27106,
1205,BURLINGTON at GATE 10,-79.80687,43.25939,
1211,BURLINGTON at HILLYARD,-79.83995,43.26736,
1210,BURLINGTON at HILLYARD,-79.83956,43.26743,
355945,BURLINGTON at HOBSON,-79.79601,43.25664,
1212,BURLINGTON at HOBSON,-79.79579,43.25683,
1213,BURLINGTON at JOHN,-79.85921,43.27218,
1214,BURLINGTON at JOHN,-79.85950,43.27211,
1216,BURLINGTON at MARY,-79.85659,43.27161,
1217,BURLINGTON at MARY,-79.85664,43.27149,
1218,BURLINGTON at MCKINSTRY,-79.83769,43.26674,
1220,BURLINGTON at OTTAWA,-79.81281,43.26032,
1222,BURLINGTON at PARKDALE,-79.78406,43.25702,
1221,BURLINGTON at PARKDALE,-79.78451,43.25665,
1225,BURLINGTON at SHERMAN,-79.83274,43.26528,
1224,BURLINGTON at SHERMAN,-79.83216,43.26548,
1226,BURLINGTON at STAPLETON,-79.80362,43.25800,
1228,BURLINGTON at STRATHEARNE,-79.79318,43.25660,
1229,BURLINGTON at STRATHEARNE,-79.79300,43.25691,
1209,BURLINGTON at TIRE,-79.79863,43.25664,
1231,BURLINGTON at VICTORIA,-79.84917,43.26968,
1230,BURLINGTON at VICTORIA,-79.84898,43.26987,
1232,BURLINGTON at WELLINGTON,-79.85243,43.27050,
1235,BURLINGTON at WENTWORTH,-79.84243,43.26784,
1234,BURLINGTON at WENTWORTH,-79.84185,43.26800,
1239,BURLINGTON at WILFRED,-79.84463,43.26847,
1238,BURLINGTON at WILFRED,-79.84436,43.26855,
355291,BURLINGTON opposite 1755,-79.78966,43.25663,
1203,BURLINGTON opposite BIRCH,-79.83386,43.26592,
1219,BURLINGTON opposite MCKINSTRY,-79.83715,43.26688,
1227,BURLINGTON opposite STAPLETON,-79.80321,43.25828,
1208,BURLINGTON opposite TIRE,-79.79864,43.25719,
1233,BURLINGTON opposite WELLINGTON,-79.85247,43.27075,
1237,BURLINGTON opposite WILCOX,-79.82754,43.26411,
355831,CANNON at BALMORAL,-79.81995,43.24798,
1248,CANNON at BARNESDALE,-79.83511,43.25251,
1247,CANNON at BARNESDALE,-79.83446,43.25221,
1249,CANNON at BELMONT,-79.82292,43.24870,
1250,CANNON at BELVIEW,-79.82328,43.24890,
1251,CANNON at BIRCH,-79.84149,43.25437,
1252,CANNON at CAMERON,-79.80507,43.24493,
1253,CANNON at CAMERON,-79.80467,43.24516,
355439,CANNON at CATHARINE,-79.86321,43.25983,
1254,CANNON at EAST BEND,-79.82609,43.24943,
1256,CANNON at EDGEMONT,-79.81599,43.24711,
1258,CANNON at EMERALD,-79.85215,43.25713,
355438,CANNON at FERGUSON,-79.85995,43.25905,
1260,CANNON at FREDERICK,-79.81207,43.24637,
1261,CANNON at GAGE,-79.82802,43.24987,
1262,CANNON at GAGE,-79.82778,43.24995,
1263,CANNON at GIBSON,-79.84003,43.25398,
1264,CANNON at HESS,-79.87517,43.26259,
355440,CANNON at HUGHSON,-79.86536,43.26035,
1266,CANNON at KENILWORTH,-79.80762,43.24536,
1265,CANNON at KENILWORTH,-79.80750,43.24519,
1267,CANNON at LOTTRIDGE,-79.83296,43.25184,
1268,CANNON at LOTTRIDGE,-79.83263,43.25188,
1269,CANNON at OTTAWA,-79.81787,43.24749,
355830,CANNON at OTTAWA,-79.81705,43.24748,
3221,CANNON at QUEEN,-79.87710,43.26297,
1271,CANNON at ROBINS,-79.81036,43.24584,
1272,CANNON at ROBINS,-79.80992,43.24588,
1273,CANNON at ROSSLYN,-79.82071,43.24827,
1274,CANNON at SANFORD,-79.84466,43.25520,
1275,CANNON at SHERMAN,-79.83741,43.25317,
1276,CANNON at SMITH,-79.85025,43.25664,
356099,CANNON at TIM HORTONS FIELD,-79.83037,43.25077,
1277,CANNON at VICTORIA,-79.85443,43.25773,
355437,CANNON at WELLINGTON,-79.85749,43.25846,
1278,CANNON at WENTWORTH,-79.84713,43.25585,
1255,CANNON opposite EAST BEND,-79.82562,43.24945,
1257,CANNON opposite EDGEMONT,-79.81566,43.24718,
1259,CANNON opposite PROVINCE,-79.81281,43.24641,
356100,CANNON opposite TIM HORTONS FIELD,-79.83044,43.25063,
1242,CCIW at ADMINISTRATION BUILDING,-79.80067,43.29944,
1243,CCIW at TECHNOLOGY BUILDING,-79.80114,43.30072,
1280,CENTENNIAL at ARROWSMITH,-79.75936,43.23992,
1283,CENTENNIAL at BARTON,-79.76052,43.23662,
1282,CENTENNIAL at BARTON,-79.76031,43.23767,
1284,CENTENNIAL at DELAWANA,-79.76248,43.23266,
1285,CENTENNIAL at DELAWANA,-79.76242,43.23208,
1286,CENTENNIAL at EASTGATE,-79.76127,43.23519,
1287,CENTENNIAL at FELKER,-79.76544,43.22481,
1288,CENTENNIAL at GLENVIEW,-79.76611,43.22308,
355472,CENTENNIAL at KING,-79.76773,43.21906,
355473,CENTENNIAL at KING,-79.76780,43.21929,
1292,CENTENNIAL at NEIL,-79.76489,43.22666,
1293,CENTENNIAL at NEIL,-79.76473,43.22660,
1294,CENTENNIAL at ORLANDA,-79.76722,43.22074,
1296,CENTENNIAL at PLEASANT,-79.76628,43.22305,
1297,CENTENNIAL at QUEENSTON,-79.76360,43.22925,
355815,CENTENNIAL at VINEYARD,-79.76316,43.23049,
1298,CENTENNIAL at VIOLET,-79.76145,43.23447,
1281,CENTENNIAL opposite ARROWSMITH,-79.75926,43.23940,
1279,CENTENNIAL opposite FELKER,-79.76585,43.22417,
1290,CENTENNIAL opposite GODERICH,-79.75799,43.24240,
1295,CENTENNIAL opposite ORLANDA,-79.76711,43.22064,
355816,CENTENNIAL opposite VINEYARD,-79.76331,43.23046,
355754,CENTENNIAL WALMART PLATFORM 1,-79.75556,43.24244,
356007,CENTENNIAL WALMART PLATFORM 2,-79.75530,43.24252,
356071,CENTRE at AIRPORT,-79.93011,43.16010,
1300,CHARLTON at BAY,-79.87706,43.25101,
1301,CHARLTON at CAROLINE,-79.87848,43.25136,
1302,CHARLTON at DUNDURN,-79.89097,43.25441,
1303,CHARLTON at HESS,-79.88021,43.25179,
1306,CHATHAM at LOCKE,-79.88637,43.25420,
1307,CHEDMAC at CHEDMAC,-79.92202,43.23827,
355930,CHEDMAC at EXTENDICARE,-79.92118,43.23796,
1309,CHEDMAC at HOLBROOK BUILDING,-79.91794,43.23730,
1311,CHEDMAC at RICE,-79.91616,43.23674,
355293,CHEDMAC opposite HEPBURN,-79.92178,43.23912,
356101,CHEDMAC opposite REDFERN,-79.92136,43.24047,
1312,CHEDMAC opposite SOUTHRIDGE,-79.92040,43.23788,
1313,CHESLEY at CHESTER,-79.89610,43.21658,
1315,CHESLEY at STONE CHURCH,-79.89765,43.21350,
1316,CHESTER at ANNABELLE,-79.89392,43.21614,
355847,CHESTER at ANNABELLE,-79.89406,43.21610,
1317,CHESTER at CHESLEY,-79.89600,43.21664,
1318,CHESTER at WEST 5TH,-79.89262,43.21585,
1319,CHESTER at WEST 5TH,-79.89263,43.21571,
355872,CLAPPISON at DUNDAS,-79.91202,43.31830,
355906,CLAPPISON at DUNDAS,-79.91202,43.31830,
355898,CLAPPISON at DUNDAS,-79.91167,43.31817,
355909,CLAPPISON at DUNDAS,-79.91167,43.31817,
356029,CLAPPISON opposite HORSESHOE,-79.91344,43.31903,
1321,COCHRANE at DUNDONALD,-79.80584,43.22328,
1322,COCHRANE at HIXON,-79.80407,43.22746,
1323,COCHRANE at KING,-79.80267,43.23080,
1324,COCHRANE at LAWRENCE,-79.80352,43.22886,
1325,COCHRANE at MONTROSE,-79.80479,43.22575,
1326,CONCESSION at BELWOOD,-79.85722,43.24230,
1331,CONCESSION at EAST 13TH,-79.86131,43.24321,
1330,CONCESSION at EAST 13TH,-79.86131,43.24321,
1333,CONCESSION at EAST 15TH,-79.85976,43.24282,
1334,CONCESSION at EAST 15TH,-79.85976,43.24282,
1336,CONCESSION at EAST 17TH,-79.85739,43.24226,
1335,CONCESSION at EAST 17TH,-79.85739,43.24226,
1338,CONCESSION at EAST 22ND,-79.85226,43.24096,
1339,CONCESSION at EAST 24TH,-79.84953,43.24031,
1340,CONCESSION at EAST 26TH,-79.84747,43.23978,
355745,CONCESSION at EAST 31ST,-79.84323,43.23870,
1342,CONCESSION at EAST 33RD,-79.84184,43.23836,
1344,CONCESSION at EAST 36TH,-79.83885,43.23778,
1345,CONCESSION at EAST 36TH,-79.83910,43.23772,
1346,CONCESSION at EAST 38TH,-79.83726,43.23730,
1327,CONCESSION at HAMILTON,-79.84999,43.24056,
1347,CONCESSION at JURAVINSKI HOSPITAL,-79.84514,43.23928,
1348,CONCESSION at MOUNTAIN PARK,-79.83646,43.23724,
1349,CONCESSION at POPLAR,-79.84786,43.24000,
1354,CONCESSION at SUMMIT,-79.85234,43.24113,
355818,CONCESSION at UPPER GAGE,-79.83528,43.23687,
1351,CONCESSION at UPPER SHERMAN,-79.84437,43.23894,
1350,CONCESSION at UPPER SHERMAN,-79.84362,43.23890,
1352,CONCESSION at UPPER WELLINGTON,-79.86445,43.24403,
1353,CONCESSION at UPPER WELLINGTON,-79.86445,43.24403,
1356,CONCESSION at UPPER WENTWORTH,-79.85438,43.24145,
355276,CONCESSION at UPPER WENTWORTH,-79.85438,43.24145,
1328,CONCESSION opposite EAST 11TH,-79.86333,43.24383,
1329,CONCESSION opposite EAST 11TH,-79.86333,43.24383,
1332,CONCESSION opposite EAST 13TH,-79.86080,43.24320,
1337,CONCESSION opposite EAST 19TH,-79.85520,43.24182,
1343,CONCESSION opposite EAST 33RD,-79.84141,43.23840,
356095,CONFEDERATION GO at PLATFORM 4,-79.75987,43.24248,
1358,COOTES at DUNDAS,-79.94470,43.26543,
1359,COOTES at EAST,-79.94530,43.26549,
1360,COOTES at KING,-79.94936,43.26557,
1841,COOTES at WEST,-79.94977,43.26543,
356087,DARTNALL opposite SPCA,-79.83438,43.18429,
1361,DAVIDSON at GOVERNORS,-79.98631,43.25710,
1363,DELAWARE at BURRIS,-79.84546,43.24701,
356013,DELAWARE at GLADSTONE,-79.84729,43.24738,
1364,DELAWARE at HOLTON,-79.84379,43.24645,
1365,DELAWARE at HOLTON,-79.84353,43.24651,
1366,DELAWARE at MYRTLE,-79.84921,43.24783,
1368,DELAWARE at SANFORD,-79.84797,43.24765,
1369,DELAWARE at SHERMAN,-79.84094,43.24576,
1370,DELAWARE at WENTWORTH,-79.85031,43.24824,
1371,DENLOW opposite PLEASANT,-79.89934,43.24183,
1372,DEPEW at BEACH,-79.81952,43.25676,
1373,DEPEW at BURLINGTON,-79.81733,43.26144,
1374,DEPEW at BURLINGTON,-79.81742,43.26177,
1375,DEPEW at GERTRUDE,-79.81865,43.25863,
1376,DEPEW at GERTRUDE,-79.81851,43.25862,
1377,DEPEW at INDUSTRIAL,-79.81685,43.26315,
1378,DEWITT at ARVIN,-79.70805,43.22755,
355312,DISCOVERY at HWT CENTRE,-79.86056,43.27753,
355313,DISCOVERY at PIER 8,-79.86026,43.27625,
1379,DUKE at MACNAB,-79.87232,43.25198,
356066,DUKE at PARK,-79.87421,43.25246,
355876,DUNDAS at BAYVIEW,-79.90330,43.32439,
355877,DUNDAS at BERRY HILL,-79.89884,43.32820,
356097,DUNDAS at BURKE,-79.88487,43.33989,
355856,DUNDAS at BURKE,-79.88435,43.34009,
355875,DUNDAS at DENNIS,-79.90623,43.32182,
355364,DUNDAS at FIRST,-79.88782,43.33759,
355344,DUNDAS at HAMILTON,-79.89599,43.33077,
355878,DUNDAS at HAMILTON,-79.89537,43.33113,
355348,DUNDAS at HOLLYBUSH,-79.90877,43.31986,
355874,DUNDAS at HOWLANDMILLS,-79.90875,43.31966,
355879,DUNDAS at MAIN,-79.89294,43.33326,
355343,DUNDAS at MAIN,-79.89312,43.33326,
1381,DUNDAS at MAIN,-79.95130,43.26340,
355347,DUNDAS at MCDONALD,-79.90618,43.32207,
355365,DUNDAS at MILL,-79.89136,43.33481,
355362,DUNDAS at PAMELA,-79.88113,43.34271,
355345,DUNDAS at PERRELLI,-79.89916,43.32813,
355346,DUNDAS at RILEY,-79.90311,43.32477,
1383,DUNDAS at THORPE,-79.94632,43.26439,
1382,DUNDAS at THORPE,-79.94641,43.26451,
1384,DUNDAS at WEST,-79.95023,43.26376,
355819,DUNDAS opposite BAYVIEW,-79.90440,43.32361,
355855,DUNDAS opposite FIRST,-79.88771,43.33752,
355858,DUNDAS opposite PAMELA,-79.88150,43.34220,
355854,DUNDAS opposite WATERDOWN MANOR,-79.89094,43.33501,
1385,DUNDAS opposite WEST,-79.94924,43.26381,
1389,DUNDURN at ABERDEEN,-79.89261,43.25129,
1390,DUNDURN at ABERDEEN,-79.89282,43.25115,
355760,DUNDURN at CHARLTON,-79.89117,43.25457,
355720,DUNDURN at HERKIMER,-79.89176,43.25347,
1394,DUNDURN at HILLCREST,-79.89469,43.24705,
1393,DUNDURN at HILLCREST,-79.89447,43.24710,
1387,DUNDURN at JONES,-79.88588,43.26721,
1396,DUNDURN at ORCHARD HILL,-79.89354,43.24917,
1397,DUNDURN at STANLEY,-79.89183,43.25294,
1388,DUNDURN at SUNSET,-79.88691,43.26474,
1392,DUNDURN opposite ORCHARD HILL,-79.89363,43.24940,
2,Eastgate Terminal,-79.76562,43.22874,
1402,EASTGATE TERMINAL PLATFORM 1,-79.76626,43.22887,
1406,EASTGATE TERMINAL PLATFORM 2,-79.76589,43.22879,
1399,EASTGATE TERMINAL PLATFORM 2,-79.76589,43.22879,
1405,EASTGATE TERMINAL PLATFORM 3,-79.76557,43.22872,
355513,EASTGATE TERMINAL PLATFORM 3,-79.76553,43.22871,
1403,EASTGATE TERMINAL PLATFORM 4,-79.76556,43.22860,
1400,EASTGATE TERMINAL PLATFORM 7,-79.76600,43.22852,
1407,EASTPORT at CCIW,-79.80001,43.30176,
1408,EASTPORT at LAKESHORE,-79.79886,43.30221,
1409,ELIZABETH at LAKESHORE,-79.79479,43.32507,
355742,EMERSON at MAIN,-79.91975,43.25721,
1411,EMERSON at MAIN,-79.91949,43.25756,
1413,EMERSON at ROYAL,-79.92157,43.25315,
1412,EMERSON at ROYAL,-79.92161,43.25348,
1415,EMERSON at SUSSEX,-79.92013,43.25623,
1417,EMERSON at WARD,-79.92112,43.25414,
1416,EMERSON at WARD,-79.92114,43.25445,
1469,FENNELL at AUCHMAR,-79.89250,43.24142,
1418,FENNELL at CASTLEFIELD,-79.83167,43.22608,
1419,FENNELL at EAST 12TH,-79.86617,43.23473,
1421,FENNELL at EAST 14TH,-79.86415,43.23426,
1422,FENNELL at EAST 15TH,-79.86347,43.23399,
1423,FENNELL at EAST 15TH,-79.86302,43.23393,
1424,FENNELL at EAST 18TH,-79.86066,43.23322,
1425,FENNELL at EAST 18TH,-79.85988,43.23320,
1426,FENNELL at EAST 22ND,-79.85626,43.23212,
1427,FENNELL at EAST 22ND,-79.85549,43.23208,
1429,FENNELL at EAST 24TH,-79.85387,43.23167,
1428,FENNELL at EAST 24TH,-79.85368,43.23145,
1430,FENNELL at EAST 26TH,-79.85104,43.23092,
1431,FENNELL at EAST 32ND,-79.84659,43.22969,
1432,FENNELL at EAST 33RD,-79.84525,43.22958,
1433,FENNELL at EAST 34TH,-79.84460,43.22930,
1434,FENNELL at EAST 35TH,-79.84341,43.22920,
1436,FENNELL at EAST 37TH,-79.84162,43.22876,
1435,FENNELL at EAST 37TH,-79.84196,43.22870,
1437,FENNELL at EAST 43RD,-79.83708,43.22742,
1438,FENNELL at EAST 43RD,-79.83639,43.22737,
1439,FENNELL at EAST 45TH,-79.83437,43.22671,
1440,FENNELL at EAST 45TH,-79.83410,43.22678,
1441,FENNELL at EAST 5TH,-79.87459,43.23687,
1442,FENNELL at EAST 8TH,-79.87021,43.23575,
1443,FENNELL at GLENFORD,-79.82773,43.22508,
1471,FENNELL at GOVERNORS,-79.88828,43.24025,
1445,FENNELL at HIGH,-79.82593,43.22483,
1446,FENNELL at HIGH,-79.82582,43.22466,
1447,FENNELL at HOOVER,-79.87058,43.23570,
1448,FENNELL at MOUNTAIN PLAZA,-79.87632,43.23709,
1449,FENNELL at PRINCETON,-79.82260,43.22408,
1452,FENNELL at SHADYSIDE,-79.85177,43.23094,
1453,FENNELL at SHIRLEY,-79.82072,43.22350,
1456,FENNELL at UPPER GAGE,-79.83865,43.22799,
1455,FENNELL at UPPER GAGE,-79.83932,43.22801,
1473,FENNELL at UPPER JAMES,-79.87805,43.23761,
1457,FENNELL at UPPER JAMES,-79.87738,43.23762,
1459,FENNELL at UPPER OTTAWA,-79.82914,43.22541,
1458,FENNELL at UPPER OTTAWA,-79.82909,43.22559,
1460,FENNELL at UPPER SHERMAN,-79.84846,43.23006,
1461,FENNELL at UPPER SHERMAN,-79.84788,43.23013,
1462,FENNELL at UPPER WELLINGTON,-79.86847,43.23515,
1463,FENNELL at UPPER WELLINGTON,-79.86784,43.23519,
1464,FENNELL at UPPER WENTWORTH,-79.85824,43.23260,
1465,FENNELL at UPPER WENTWORTH,-79.85772,43.23268,
1466,FENNELL at WARREN,-79.87338,43.23641,
1475,FENNELL at WEST 2ND,-79.88005,43.23813,
1474,FENNELL at WEST 2ND,-79.87942,43.23812,
1477,FENNELL at WEST 5TH,-79.88425,43.23921,
1467,FENNELL opposite AUCHMAR,-79.89252,43.24128,
1451,FENNELL opposite CASTLEFIELD,-79.83124,43.22606,
1420,FENNELL opposite EAST 13TH,-79.86536,43.23439,
1444,FENNELL opposite GLENFORD,-79.82717,43.22515,
1472,FENNELL opposite GOVERNORS,-79.88722,43.24016,
1450,FENNELL opposite PRINCETON,-79.82287,43.22398,
1454,FENNELL opposite SHIRLEY,-79.82061,43.22362,
1478,FERRIE at WELLINGTON,-79.85326,43.26631,
1480,FIDDLER'S GREEN at ENMORE,-79.98402,43.20736,
1482,FIDDLER'S GREEN at GARDEN,-79.98268,43.20324,
1483,FIDDLER'S GREEN at GILBERT,-79.98620,43.21416,
1485,FIDDLER'S GREEN at OAKLEY,-79.98550,43.21184,
1488,FIDDLER'S GREEN at WILSON,-79.98714,43.21767,
1481,FIDDLER'S GREEN opposite ENMORE,-79.98404,43.20696,
1484,FIDDLER'S GREEN opposite GILBERT,-79.98617,43.21435,
1486,FIDDLER'S GREEN opposite OAKLEY,-79.98541,43.21188,
2642,FIESTA MALL LOOP,-79.74614,43.22290,
1490,FIRST opposite BRANTHAVEN,-79.77975,43.19184,
1491,FIRST opposite ELECTRA,-79.78089,43.18902,
1492,FIRST opposite JOHN MURRAY,-79.78038,43.19036,
355937,FIRST opposite MAPLEWOOD GREEN PARK,-79.78202,43.18631,
1496,GAGE at BEACH,-79.82413,43.25888,
1497,GAGE at BEACH,-79.82396,43.25880,
1498,GAGE at BURLINGTON,-79.82267,43.26236,
1503,GAGE at CUMBERLAND,-79.83168,43.24101,
1500,GAGE at GATE 5,-79.82189,43.26369,
1499,GAGE at INDUSTRIAL,-79.82219,43.26331,
1504,GAGE opposite CUMBERLAND,-79.83163,43.24063,
355527,GARNER at ANSON,-79.97834,43.20242,
355556,GARNER at BENNETTS APPLES,-79.93999,43.20855,
355528,GARNER at BRAITHWAITE,-79.98733,43.20096,
355974,GARNER at DUFF'S CORNERS,-80.02191,43.19503,
355466,GARNER at FIDDLERS GREEN,-79.98278,43.20161,
355479,GARNER at FIDDLERS GREEN,-79.98238,43.20175,
355931,GARNER at GLANCASTER,-79.93038,43.21016,
355530,GARNER at HAMILTON,-80.00194,43.19856,
355901,GARNER at JOHN FREDERICK,-79.96283,43.20496,
355524,GARNER at KITTY MURRAY,-79.95252,43.20666,
355526,GARNER at MILLER,-79.97501,43.20296,
355529,GARNER at PANABAKER,-79.99529,43.19966,
355770,GARNER at RAYMOND,-79.93433,43.20958,
355949,GARNER at REDEEMER UNIVERSITY COLLEGE,-79.94883,43.20723,
355546,GARNER at SHAVER,-80.01223,43.19669,
355531,GARNER at SHAVER,-80.01181,43.19691,
355478,GARNER at SOUTHCOTE,-79.95738,43.20586,
355467,GARNER at SOUTHCOTE,-79.95824,43.20563,
355522,GARNER at SPRINGBROOK,-79.94479,43.20794,
1509,GARNER at WALMART,-80.01449,43.19645,
356080,GARNER at WOODMOUNT,-79.97220,43.20342,
355550,GARNER opposite ANSON,-79.97826,43.20230,
355521,GARNER opposite BENNETTS APPLES,-79.94006,43.20871,
355549,GARNER opposite BRAITHWAITE,-79.98759,43.20078,
355477,GARNER opposite GLANCASTER,-79.93046,43.21025,
355547,GARNER opposite HAMILTON,-80.00213,43.19839,
355902,GARNER opposite JOHN FREDERICK,-79.96280,43.20491,
355553,GARNER opposite KITTY MURRAY,-79.95263,43.20655,
355551,GARNER opposite MILLER,-79.97528,43.20277,
355548,GARNER opposite PANNABAKER,-79.99552,43.19948,
355769,GARNER opposite RAYMOND,-79.93458,43.20946,
355932,GARNER opposite REDEEMER UNIVERSITY COLLEGE,-79.94920,43.20711,
355555,GARNER opposite SPRINGBROOK,-79.94522,43.20771,
355552,GARNER opposite WOODMOUNT,-79.97166,43.20338,
1516,GARTH at AUCHMAR,-79.89579,43.24409,
1518,GARTH at BENDAMERE,-79.89940,43.23662,
1519,GARTH at BENDAMERE,-79.89927,43.23641,
1520,GARTH at BRAEMAR,-79.89621,43.24307,
1521,GARTH at CLAUDETTE,-79.91044,43.21155,
1543,GARTH at DENLOW,-79.89707,43.24173,
1542,GARTH at DENLOW,-79.89707,43.24173,
1525,GARTH at ELMWOOD,-79.89995,43.23491,
1524,GARTH at ELMWOOD,-79.90001,43.23529,
1526,GARTH at FENNELL,-79.89665,43.24203,
1527,GARTH at GARROW,-79.90670,43.22027,
1528,GARTH at GARROW,-79.90652,43.21984,
1529,GARTH at GISELE,-79.91151,43.20892,
1531,GARTH at GLENVALE,-79.90795,43.21730,
1534,GARTH at LIMERIDGE,-79.90347,43.22712,
1533,GARTH at LIMERIDGE,-79.90373,43.22702,
1511,GARTH at LINC NORTH,-79.90419,43.22554,
1510,GARTH at LINC NORTH,-79.90436,43.22558,
1513,GARTH at LINC SOUTH,-79.90577,43.22163,
1512,GARTH at LINC SOUTH,-79.90615,43.22160,
1535,GARTH at MOUNTAIN CREST,-79.89857,43.23843,
1537,GARTH at REGENT,-79.90981,43.21300,
355740,GARTH at RYMAL,-79.91222,43.20705,
355738,GARTH at RYMAL,-79.91250,43.20661,
1541,GARTH at SANATORIUM,-79.90070,43.23379,
1544,GARTH at STONE CHURCH,-79.90847,43.21612,
1545,GARTH at STONE CHURCH,-79.90833,43.21558,
1546,GARTH at WESTCLIFFE,-79.89796,43.23975,
1517,GARTH opposite AUCHMAR,-79.89595,43.24419,
1522,GARTH opposite CLAUDETTE,-79.91018,43.21193,
1523,GARTH opposite DENLOW,-79.89721,43.24098,
1530,GARTH opposite GISELE,-79.91141,43.20889,
1532,GARTH opposite GLENVALE,-79.90778,43.21691,
1536,GARTH opposite MOUNTAIN CREST,-79.89854,43.23801,
1538,GARTH opposite REGENT,-79.90965,43.21305,
1547,GARTH opposite WESTCLIFFE,-79.89777,43.23969,
1550,GATESTONE at HIGHLAND,-79.78694,43.18476,
1551,GATESTONE at SHADYGLEN,-79.78817,43.18165,
355733,GATESTONE opposite BEACHGROVE,-79.78468,43.18748,
355741,GIBBONS SQUARE SHELTER,-79.91101,43.20580,
1554,GLANCASTER at GARNER,-79.92876,43.21001,
1555,GLANCASTER LOOP,-79.92889,43.20838,
356090,GLOVER at MAPLE LEAF,-79.83254,43.17126,
1556,GLOW at BRIGHTON,-79.78081,43.25440,
1557,GLOW at BRIGHTON,-79.78054,43.25447,
1559,GLOW at DUNN,-79.77535,43.25334,
1558,GLOW at DUNN,-79.77644,43.25345,
1560,GLOW at KNOX,-79.77838,43.25387,
1561,GLOW at KNOX,-79.77810,43.25393,
1563,GLOW at PARKDALE,-79.78386,43.25520,
1562,GLOW at PARKDALE,-79.78358,43.25501,
1564,GLOW at WOODWARD,-79.77459,43.25304,
1565,GOLF LINKS at CLOVERLEAF,-79.94248,43.22730,
1566,GOLF LINKS at CLOVERLEAF,-79.94251,43.22730,
1568,GOLF LINKS at KITTY MURRAY,-79.95299,43.22551,
1569,GOLF LINKS at LEGEND,-79.94802,43.22657,
1573,GOLF LINKS at MCNIVEN,-79.96192,43.22412,
1574,GOLF LINKS at MEADOWLANDS,-79.94857,43.22625,
1575,GOLF LINKS at ONONDAGA,-79.95925,43.22497,
1578,GOLF LINKS at STONE CHURCH,-79.93723,43.22817,
1567,GOLF LINKS opposite KITTY MURRAY,-79.95217,43.22585,
1570,GOLF LINKS opposite MARTINDALE,-79.94394,43.22705,
1572,GOLF LINKS opposite MARTINDALE,-79.94396,43.22705,
1571,GOLF LINKS opposite MARTINDALE,-79.94394,43.22705,
1576,GOLF LINKS opposite ONONDAGA,-79.95943,43.22475,
1580,GORDON DRUMMOND at GORDON DRUMMOND,-79.79464,43.19028,
1579,GORDON DRUMMOND at GORDON DRUMMOND,-79.79468,43.19012,
1582,GORDON DRUMMOND at ISAAC BROCK,-79.78938,43.19104,
1583,GORDON DRUMMOND at KELSEY,-79.79166,43.19098,
1584,GORDON DRUMMOND at MARSTON,-79.79707,43.19024,
1585,GORDON DRUMMOND at TWIN OAKS,-79.79198,43.19083,
1581,GORDON DRUMMOND at VENTURA,-79.78946,43.19119,
1586,GOULDING at SAN FERNANDO,-79.92235,43.24309,
1587,GOULDING at SAN GRECO,-79.92210,43.24362,
1589,GOULDING at SCENIC,-79.92260,43.24521,
1588,GOULDING at SCENIC,-79.92274,43.24515,
1592,GOVERNOR'S at AVON,-79.96284,43.26125,
1594,GOVERNOR'S at BRIDLEWOOD,-79.97874,43.25826,
1595,GOVERNOR'S at CASTLEWOOD,-79.97843,43.25843,
1597,GOVERNOR'S at CREIGHTON,-79.96867,43.26017,
1596,GOVERNOR'S at CREIGHTON,-79.96826,43.26041,
1598,GOVERNOR'S at DAVIDSON,-79.98600,43.25704,
remix-3fcb0344-e409-4429-9d87-7d43cdf09fe7,Governor's at Dundas Valley,-79.97520,43.25905,
355972,GOVERNOR'S at DUNDAS VALLEY SCHOOL,-79.97619,43.25874,
356039,GOVERNOR'S at HUNTINGWOOD,-79.97195,43.25970,
1603,GOVERNOR'S at MAIN,-79.95281,43.26307,52A-Dundas First Solution (Inbound)
355943,GOVERNOR'S at MAIN,-79.95317,43.26313,52A-Dundas First Solution (Outbound)
1605,GOVERNOR'S at MOSS,-79.98217,43.25761,
remix-a5b46fdf-9b96-4d94-afd0-d6c0787ec9bf,Governor's at Ogilvie,-79.95573,43.26270,
remix-dbf6315f-0867-4839-9b30-47e4940395b5,Governor's at Ogilvie,-79.95566,43.26255,
1607,GOVERNOR'S at OVERFIELD,-79.95855,43.26209,
356037,GOVERNORS at PIRIE,-79.98916,43.25649,
remix-5fee897d-461e-48af-8e7f-e3d6311e8e8f,Governor's at Tally Ho,-79.96575,43.26072,
1593,GOVERNOR'S opposite AVON,-79.96291,43.26139,
356040,GOVERNOR'S opposite HUNTINGWOOD,-79.97188,43.25956,
1606,GOVERNOR'S opposite MOSS,-79.98257,43.25766,
1608,GOVERNOR'S opposite OVERFIELD,-79.95845,43.26220,
remix-0dd7e317-791e-433d-bd96-fecbd83f60f5,Governor's opposite Tally Ho,-79.96559,43.26090,
1611,GRAY at BRITANNIA,-79.74127,43.22983,
1613,GRAY at CEDARDALE,-79.74272,43.22641,
1616,GRAY at FEDERAL,-79.74338,43.22482,
1615,GRAY at FEDERAL,-79.74342,43.22522,
1617,GRAY at HIGHWAY 8,-79.74378,43.22380,
1619,GRAY at ROXBOROUGH,-79.74190,43.22834,
1618,GRAY at ROXBOROUGH,-79.74195,43.22869,
1612,GRAY opposite BRITANNIA,-79.74146,43.22994,
356008,GRAY opposite CARDINAL NEWMAN,-79.74467,43.22195,
1614,GRAY opposite CEDARDALE,-79.74292,43.22645,
1620,GREEN at HIGHWAY 8,-79.73366,43.22074,
1621,GREEN at KING,-79.73496,43.21800,
1624,GREENHILL at BLANCHE,-79.78248,43.20968,
1625,GREENHILL at BUNKER HILL,-79.79123,43.21032,
1626,GREENHILL at COCHRANE,-79.80747,43.22000,
1627,GREENHILL at COUNTRY CLUB,-79.79388,43.21312,
1628,GREENHILL at GLEN MANOR,-79.79327,43.21261,
355295,GREENHILL at GLEN VISTA,-79.79651,43.21642,
355973,GREENHILL at GREENHILL CENTRE,-79.78655,43.20967,
1631,GREENHILL at MOUNT ALBION,-79.79478,43.21452,
1630,GREENHILL at MOUNT ALBION,-79.79516,43.21470,
1632,GREENHILL at PUTTING,-79.79178,43.21088,
1634,GREENHILL at ST. STEVEN,-79.77997,43.20997,
1635,GREENHILL at SUMMERCREST,-79.77833,43.21038,
1636,GREENHILL at TASHA,-79.77473,43.21551,
1637,GREENHILL at TOMMAR,-79.77567,43.21340,
1638,GREENHILL at TORO,-79.79255,43.21143,
355567,GREENHILL opposite ERINDALE,-79.81010,43.22071,
355296,GREENHILL opposite GLEN VISTA,-79.79654,43.21656,
1629,GREENHILL opposite MONTE,-79.77402,43.21710,
1639,GRENFELL at KENILWORTH,-79.80399,43.25471,
1640,GRENFELL at MARTIMAS,-79.80642,43.25528,
355432,HAMILTON GO CENTRE PLATFORM 17,-79.86952,43.25267,
355415,HAMILTON GO CENTRE PLATFORM 18,-79.86858,43.25249,
1642,HARLOWE at PRITCHARD,-79.82154,43.19140,
1643,HATT at BROCK,-79.97084,43.26905,
1645,HEAD at MACNAB,-79.97453,43.26876,
1644,HEAD STREET LOOP,-79.97358,43.27052,
1646,HEMPSTEAD at NEBO,-79.83616,43.19552,
1647,HEMPSTEAD opposite UNSWORTH,-79.83956,43.19482,
1648,HERKIMER at BAY,-79.87740,43.24995,
1649,HERKIMER at CAROLINE,-79.87930,43.25045,
1650,HERKIMER at PARK,-79.87576,43.24959,
1651,HESS at ABERDEEN,-79.88171,43.24869,
1652,HESS at CHARLTON,-79.88044,43.25167,
1653,HESS at DUKE,-79.87963,43.25356,
1654,HESS at HERKIMER,-79.88084,43.25075,
1655,HESS at HUNTER,-79.87866,43.25578,
1657,HESS at ROBINSON,-79.88003,43.25262,
1658,HIGHBURY at FOXMEADOW,-79.78114,43.17743,
1549,HIGHBURY at GATESTONE,-79.78899,43.17931,
1659,HIGHBURY at PINEWOODS,-79.77778,43.18203,
1661,HIGHBURY at WHITEDEER,-79.78561,43.17848,
1660,HIGHBURY opposite SLINGER,-79.77895,43.17930,
355960,HIGHLAND at CHAUMONT,-79.78155,43.18343,
1662,HIGHLAND at FIRST,-79.78267,43.18373,
1665,HIGHLAND at SALTFLEET HIGH SCHOOL,-79.77972,43.18304,
356086,HIGHWAY 8 at ALECTRA,-79.69844,43.21216,
1672,HIGHWAY 8 at DEWITT,-79.71280,43.21574,
1671,HIGHWAY 8 at DEWITT,-79.71340,43.21565,
1673,HIGHWAY 8 at DURHAM,-79.74046,43.22266,
1674,HIGHWAY 8 at ELLINGTON,-79.72963,43.22001,
1675,HIGHWAY 8 at ENVOY,-79.70960,43.21471,
2501,HIGHWAY 8 at FIESTA MALL,-79.74698,43.22397,
1677,HIGHWAY 8 at FRUITLAND,-79.70343,43.21339,
1678,HIGHWAY 8 at GATESHEAD,-79.74098,43.22257,
2504,HIGHWAY 8 at GRAY,-79.74462,43.22363,
2506,HIGHWAY 8 at GRAY,-79.74438,43.22337,
1679,HIGHWAY 8 at GREEN,-79.73385,43.22087,
1680,HIGHWAY 8 at GREEN,-79.73330,43.22095,
1681,HIGHWAY 8 at HOMESIDE,-79.72040,43.21740,
1682,HIGHWAY 8 at JONES,-79.69364,43.21184,
1683,HIGHWAY 8 at JONES,-79.69438,43.21200,
1684,HIGHWAY 8 at KILBOURN,-79.72627,43.21890,
1685,HIGHWAY 8 at KING,-79.72972,43.21982,
1686,HIGHWAY 8 at MILLEN,-79.72367,43.21823,
1687,HIGHWAY 8 at MILLEN,-79.72286,43.21824,
1688,HIGHWAY 8 at PEACHWOOD,-79.71999,43.21752,
1676,HIGHWAY 8 at REGALVIEW,-79.70404,43.21333,
1689,HIGHWAY 8 at ROYALWOOD,-79.70962,43.21492,
1692,HIGHWAY 8 at WARWICK,-79.73819,43.22213,
1693,HIGHWAY 8 at WORSLEY,-79.72490,43.21879,
1670,HIGHWAY 8 opposite CHESTER,-79.73930,43.22217,
2502,HIGHWAY 8 opposite FIESTA MALL,-79.74764,43.22427,
355929,HIGHWAY 8 opposite FIESTA MALL,-79.74764,43.22427,
1395,HILLCREST LOOP,-79.89464,43.24629,
356042,HOLLYBUSH at CHATSWORTH - South Leg,-79.91582,43.32501,
355880,HOLLYBUSH at DUNDAS,-79.90894,43.31996,
355870,HOLLYBUSH at DUNDAS,-79.90903,43.31987,
356038,HOLLYBUSH at LONGYEAR,-79.91577,43.32512,
356078,HOLLYBUSH at RYANS WAY,-79.91304,43.32316,
356079,HOLLYBUSH opposite RYANS WAY,-79.91317,43.32311,
1694,HOLY SEPULCHRE CEMETERY EAST,-79.86856,43.29304,
1695,HOLY SEPULCHRE CEMETERY WEST,-79.86966,43.29154,
356018,HORSESHOE at FLAMBOROUGH POWER CENTRE,-79.91434,43.31802,
356017,HORSESHOE at FLAMBOROUGH POWER CENTRE,-79.91434,43.31802,
355447,HUNTER at BAY,-79.87499,43.25475,
1707,HUNTER at BAY,-79.87499,43.25475,
355453,HUNTER at BAY,-79.87499,43.25474,
1708,HUNTER at CAROLINE,-79.87741,43.25532,
1709,HUNTER at HESS,-79.87858,43.25560,
1704,HUNTER at JOHN,-79.86729,43.25291,
1710,HUNTER at LOCKE,-79.88493,43.25672,
1711,HUNTER at MACNAB,-79.87176,43.25407,
1713,HUNTER at PEARL,-79.88350,43.25641,
1714,HUNTER at QUEEN,-79.87998,43.25592,
1705,HUNTER at SPRING,-79.86138,43.25132,
1706,HUNTER at WALNUT,-79.86482,43.25227,
1712,HUNTER opposite PARK,-79.87328,43.25444,
remix-d9b3024d-e3b8-4e61-aa07-a9f04ff589de,Huntingwood at Golfview,-79.97656,43.26072,
remix-cde06173-dea7-4522-b655-33fa1e601349,Huntingwood opposite Governor's,-79.97218,43.26094,
1715,HUXLEY at KING,-79.81492,43.23351,
1721,INDUSTRIAL at OTTAWA,-79.81146,43.26231,
1718,INDUSTRIAL at OTTAWA,-79.81207,43.26252,
1236,INDUSTRIAL at WILCOX,-79.82688,43.26437,
1717,INDUSTRIAL opposite DEPEW,-79.81637,43.26366,
1719,INDUSTRIAL opposite DOFASCO PARKING,-79.80851,43.25997,
1720,INDUSTRIAL opposite GAGE,-79.82201,43.26494,
1722,INVERNESS at BELAIR,-79.87154,43.24238,
1723,INVERNESS at BRUCE PARK,-79.86938,43.24188,
1724,INVERNESS at EAST 8TH,-79.86702,43.24133,
1725,INVERNESS at ELCHO,-79.87151,43.24252,
1727,INVERNESS at UPPER JAMES,-79.87502,43.24334,
1728,INVERNESS at WAVELL,-79.87464,43.24311,
1726,INVERNESS opposite SOUTHILL,-79.86832,43.24177,
1729,ISAAC BROCK at GATESTONE,-79.78424,43.18898,
1730,ISAAC BROCK at KENNARD,-79.78756,43.18976,
1731,ISAAC BROCK opposite WILLIAM JOHNSON,-79.78902,43.19350,
1734,JAMES at BARTON,-79.86583,43.26430,
355310,JAMES at BARTON,-79.86572,43.26420,
1751,JAMES at BOLD,-79.87101,43.25244,
1753,JAMES at BOLD,-79.87101,43.25244,
1754,JAMES at BOLD,-79.87101,43.25244,
1752,JAMES at BOLD,-79.87101,43.25244,
1735,JAMES at BURLINGTON,-79.86204,43.27259,
355803,JAMES at CANNON,-79.86750,43.26046,
355309,JAMES at CANNON,-79.86727,43.26063,
1736,JAMES at CANNON,-79.86750,43.26046,
355492,JAMES at CHARLTON,-79.87212,43.24995,
1755,JAMES at CHARLTON,-79.87212,43.24995,
1756,JAMES at CHARLTON,-79.87212,43.24995,
1757,JAMES at CHARLTON,-79.87212,43.24995,
355802,JAMES at COLBOURNE,-79.86613,43.26357,
1737,JAMES at COLBOURNE,-79.86612,43.26358,
355458,JAMES at GUISE,-79.86160,43.27362,
355459,JAMES at GUISE,-79.86185,43.27342,
1758,JAMES at HUNTER,-79.87040,43.25381,
1761,JAMES at HUNTER,-79.87040,43.25381,
1760,JAMES at HUNTER,-79.87040,43.25381,
1759,JAMES at HUNTER,-79.87040,43.25381,
355431,JAMES at JACKSON,-79.87024,43.25422,
1765,JAMES at JACKSON,-79.87024,43.25422,
355728,JAMES at JACKSON,-79.87009,43.25457,
1762,JAMES at JACKSON,-79.87009,43.25457,
1771,JAMES at JACKSON,-79.86994,43.25489,
355722,JAMES at JACKSON,-79.86994,43.25489,
355723,JAMES at JACKSON,-79.86994,43.25489,
1763,JAMES at JACKSON,-79.87009,43.25457,
1764,JAMES at JACKSON,-79.87009,43.25457,
356052,JAMES at KING,-79.86958,43.25692,
355450,JAMES at MAIN,-79.86953,43.25584,
1768,JAMES at MAIN,-79.86956,43.25583,
1769,JAMES at MAIN,-79.86969,43.25541,
1772,JAMES at MARKLAND,-79.87292,43.24810,
1743,JAMES at PICTON,-79.86333,43.27004,
1742,JAMES at PICTON,-79.86318,43.26997,
1775,JAMES at ROBINSON,-79.87169,43.25092,
1774,JAMES at ROBINSON,-79.87169,43.25092,
1773,JAMES at ROBINSON,-79.87169,43.25092,
1746,JAMES at SIMCOE,-79.86417,43.26767,
355311,JAMES at STRACHAN,-79.86454,43.26686,
355314,JAMES at STRACHAN,-79.86477,43.26679,
1741,JAMES at WEST HARBOUR GO STATION,-79.86518,43.26569,
1748,JAMES at WOOD,-79.86250,43.27151,
1749,JAMES at WOOD,-79.86256,43.27182,
1750,JAMES at YORK,-79.86822,43.25882,
1738,JAMES opposite KING WILLIAM,-79.86892,43.25729,
1739,JAMES opposite KING WILLIAM,-79.86872,43.25774,
1744,JAMES opposite REBECCA,-79.86849,43.25819,
355804,JAMES opposite REBECCA,-79.86851,43.25819,
1745,JAMES opposite ROBERT,-79.86673,43.26225,
1747,JAMES opposite SIMCOE,-79.86416,43.26815,
1740,JAMES opposite WEST HARBOUR GO STATION,-79.86513,43.26560,
1776,JERSEYVILLE at MARTIN,-80.00857,43.21633,
1777,JERSEYVILLE at MEADOWBROOK,-80.00818,43.21623,
1779,JERSEYVILLE at STEVENSON,-80.01350,43.21530,
1778,JERSEYVILLE opposite SHAVER,-80.01709,43.21485,
1780,JERSEYVILLE opposite STEVENSON,-80.01305,43.21553,
1781,JOHN at BURLINGTON TERMINAL,-79.79706,43.32607,
355428,JOHN at CANNON,-79.86448,43.26036,
1784,JOHN at CHARLTON,-79.86922,43.24880,
1783,JOHN at CHARLTON,-79.86922,43.24880,
355510,JOHN at CHARLTON,-79.86922,43.24880,
1785,JOHN at CHARLTON,-79.86921,43.24880,
1791,JOHN at JACKSON,-79.86742,43.25368,
1792,JOHN at JACKSON,-79.86742,43.25368,
1793,JOHN at JACKSON,-79.86742,43.25368,
355424,JOHN at JACKSON,-79.86742,43.25368,
1790,JOHN at JACKSON,-79.86742,43.25368,
355419,JOHN at JACKSON,-79.86742,43.25368,
355799,JOHN at KING WILLIAM,-79.86617,43.25655,
355762,JOHN at KING WILLIAM,-79.86617,43.25655,
355763,JOHN at KING WILLIAM,-79.86617,43.25655,
355429,JOHN at ROBERT,-79.86384,43.26183,
355436,JOHN at WILSON,-79.86529,43.25855,
355427,JOHN at WILSON,-79.86529,43.25855,
1795,JOHN at YOUNG,-79.86858,43.25060,
1796,JOHN at YOUNG,-79.86858,43.25060,
1794,JOHN at YOUNG,-79.86858,43.25060,
355805,JOHN at YOUNG,-79.86858,43.25060,
355927,JOHN opposite HAMILTON GO CENTRE,-79.86805,43.25221,
355926,JOHN opposite HAMILTON GO CENTRE,-79.86805,43.25221,
355950,JOHN opposite HAMILTON GO CENTRE,-79.86805,43.25221,
355925,JOHN opposite HAMILTON GO CENTRE,-79.86805,43.25221,
355951,JOHN opposite HAMILTON GO CENTRE,-79.86805,43.25221,
1798,JONES at HIGHWAY 8,-79.69251,43.21256,
1799,JONES at KING,-79.75428,43.21676,
2311,JONES at MOUNTAIN,-79.75598,43.21702,
1801,JUSTINE at BALMORAL,-79.82436,43.23660,
1800,JUSTINE at BALMORAL,-79.82467,43.23655,
1802,JUSTINE at EDGEMONT,-79.82057,43.23558,
1803,JUSTINE at EDGEMONT,-79.82029,43.23566,
1804,JUSTINE at KING,-79.81785,43.23496,
1805,JUSTINE at OTTAWA,-79.82248,43.23603,
1806,JUSTINE at OTTAWA,-79.82218,43.23614,
1812,KENILWORTH at ALBANY,-79.80669,43.24774,
1811,KENILWORTH at ALBANY,-79.80681,43.24793,
1814,KENILWORTH at BARTON,-79.80588,43.24961,
1813,KENILWORTH at BARTON,-79.80616,43.24964,
1815,KENILWORTH at BEACH,-79.80312,43.25597,
1816,KENILWORTH at BRITANNIA,-79.80740,43.24613,
1817,KENILWORTH at CANNON,-79.80778,43.24567,
1818,KENILWORTH at CANNON,-79.80787,43.24504,
1827,KENILWORTH at CENTRAL,-79.81135,43.23729,
1828,KENILWORTH at CENTRAL,-79.81123,43.23706,
1819,KENILWORTH at DOFASCO,-79.80351,43.25521,
1821,KENILWORTH at DUNSMURE,-79.80921,43.24190,
1820,KENILWORTH at DUNSMURE,-79.80915,43.24248,
1830,KENILWORTH at KING,-79.81301,43.23345,
1829,KENILWORTH at KING,-79.81258,43.23370,
1831,KENILWORTH at MAIN,-79.81002,43.24059,
1832,KENILWORTH at MAIN,-79.80972,43.24073,
1833,KENILWORTH at MAPLE,-79.81071,43.23883,
1834,KENILWORTH at MAPLE,-79.81046,43.23891,
1822,KENILWORTH at MCANULTY,-79.80462,43.25298,
1824,KENILWORTH at MERCHISON,-79.80525,43.25110,
1836,KENILWORTH at MONTEREY,-79.81185,43.23556,
1835,KENILWORTH at MONTEREY,-79.81211,43.23547,
1810,KENILWORTH at PUBLIC LIBRARY,-79.80879,43.24333,
1825,KENILWORTH at ROXBOROUGH,-79.80846,43.24365,
1809,KENILWORTH CIRCLE at KIMBERLY,-79.81404,43.22986,
355278,KENILWORTH CIRCLE at KIMBERLY,-79.81404,43.22986,
1837,KENILWORTH OFF RAMP at LAWRENCE,-79.81242,43.23113,
1826,KENILWORTH opposite VANSITMART,-79.80572,43.25069,
355264,KILBRIDE at TRANSFER STATION,-79.84229,43.18781,
355265,KILBRIDE at UPPER OTTAWA,-79.84480,43.18832,
1844,KING at ALBERT,-79.95941,43.26687,
1870,KING at BATTLEFIELD,-79.76374,43.21816,
1955,KING at BAY,-79.87326,43.25789,
1896,KING at BELVIEW,-79.82531,43.24484,
remix-b6d2fa66-0240-4966-8324-2dfbb8d3cfef,King at Bond,-79.97035,43.27143,
1871,KING at BONITA,-79.74840,43.21729,
1897,KING at CAMERON,-79.80998,43.23214,
1960,KING at CAROLINE,-79.87551,43.25855,
1898,KING at CATHARINE,-79.86511,43.25547,
1899,KING at CENTENNIAL,-79.76835,43.21920,
1845,KING at CHURCH,-79.96157,43.26730,
1959,KING at CLINE,-79.90275,43.26322,
1901,KING at COCHRANE,-79.80277,43.23117,
1900,KING at COCHRANE,-79.80326,43.23145,
1872,KING at CORMAN,-79.74026,43.21693,
1873,KING at CORMAN,-79.74072,43.21682,
1839,KING at CROSS,-79.95408,43.26617,
1874,KING at DAWSON,-79.74882,43.21739,
1963,KING at DUNDURN,-79.88770,43.26219,
1962,KING at DUNDURN,-79.88770,43.26219,
1903,KING at EDGEMONT,-79.81954,43.23737,
1904,KING at EMERALD,-79.85419,43.25281,
1875,KING at FAIRCOURT,-79.76645,43.21894,
1905,KING at FAIRHOLT,-79.83602,43.25131,
1906,KING at FERGUSON,-79.86166,43.25434,
1907,KING at GAGE,-79.82825,43.24773,
1908,KING at GAILMONT,-79.78355,43.22370,
1877,KING at GRAY,-79.74568,43.21771,
1878,KING at GRAY,-79.74675,43.21751,
1880,KING at GREEN,-79.73489,43.21769,
1910,KING at GREENHILL,-79.77303,43.22008,
remix-5a5afbbe-04a9-4e39-8909-1f633109b4eb,King at Hatt,-79.95270,43.26453,
remix-414f3fa1-d453-4983-8639-847adc6ad051,King at Hatt,-79.95484,43.26470,
1912,KING at HOLMESDALE,-79.79754,43.22992,
1911,KING at HOLTON,-79.84131,43.25144,
1914,KING at HUGHSON,-79.86824,43.25650,
1964,KING at JAMES,-79.86958,43.25692,
1917,KING at JOHN,-79.86718,43.25615,
1916,KING at JOHN,-79.86692,43.25607,
1890,KING at JONES,-79.75429,43.21645,
1918,KING at JUSTINE,-79.81789,43.23525,
1920,KING at KENILWORTH,-79.81270,43.23262,
1919,KING at KENILWORTH,-79.81289,43.23288,
1921,KING at KESWICK,-79.81425,43.23326,
1881,KING at LAKE,-79.75869,43.21722,
1882,KING at LAKE,-79.75860,43.21707,
355298,KING at LAWRENCE,-79.79149,43.22693,
1883,KING at LOMA,-79.75049,43.21697,
1967,KING at LONGWOOD,-79.90127,43.26318,
1969,KING at MACKLIN,-79.89659,43.26214,
1884,KING at MANOR,-79.75108,43.21705,
1972,KING at MARION,-79.90503,43.26233,
1971,KING at MARION,-79.90467,43.26230,
1847,KING at MARKET,-79.96326,43.26763,
1854,KING at MARKET,-79.96274,43.26763,
1923,KING at MAYHURST,-79.79753,43.22976,
1848,KING at MCMURRAY,-79.95832,43.26660,
356065,KING at MELROSE,-79.83237,43.25012,
1849,KING at MEMORIAL,-79.95710,43.26643,
1924,KING at MONTCLAIR,-79.81987,43.23757,
1886,KING at MOUNTAIN,-79.75667,43.21658,
1885,KING at MOUNTAIN,-79.75684,43.21677,
1850,KING at NAPIER,-79.96589,43.26876,
1855,KING at NAPIER,-79.96555,43.26877,
1927,KING at NASH,-79.77715,43.22102,
1887,KING at NEW MOUNTAIN,-79.75356,43.21651,
1840,KING at OGILVIE,-79.95424,43.26613,
1930,KING at OTTAWA,-79.82088,43.23870,
1929,KING at OTTAWA,-79.82086,43.23898,
1931,KING at OWEN,-79.77186,43.22006,
1973,KING at PAISLEY,-79.90602,43.26174,
1932,KING at PARKDALE,-79.79483,43.22915,
1933,KING at PARKDALE,-79.79524,43.22910,
1925,KING at PARKWAY OFF RAMP,-79.78851,43.22540,
1976,KING at PEARL,-79.88137,43.26024,
1851,KING at PEEL,-79.96729,43.26972,
1934,KING at POTTRUFF,-79.78613,43.22481,
1936,KING at PROVINCE,-79.81813,43.23575,
1938,KING at QUIGLEY,-79.78166,43.22264,
1939,KING at RODGERS,-79.80514,43.23162,
1940,KING at ROSEDALE,-79.80829,43.23168,
1942,KING at SANFORD,-79.84615,43.25182,
1943,KING at SHERMAN,-79.83813,43.25137,
1978,KING at STERLING,-79.90715,43.26146,
1944,KING at STEVEN,-79.85178,43.25251,
1945,KING at STIRTON,-79.84360,43.25151,
1888,KING at STONEY BROOK,-79.74363,43.21739,
1889,KING at STONEY BROOK,-79.74405,43.21729,
1979,KING at STRATHCONA,-79.88503,43.26139,
1852,KING at SYDENHAM,-79.95716,43.26656,
1946,KING at VICTORIA,-79.85659,43.25317,
1891,KING at VILLAGE GREEN,-79.76180,43.21790,
1892,KING at WALKER,-79.76183,43.21774,
1947,KING at WALNUT,-79.86294,43.25474,
1948,KING at WALTER,-79.79959,43.23051,
1856,KING at WELLINGTON,-79.96854,43.27022,
1950,KING at WELLINGTON,-79.85898,43.25354,
1951,KING at WENTWORTH,-79.84883,43.25213,
1952,KING at WEXFORD,-79.81565,43.23410,
1953,KING at WEXFORD,-79.81604,43.23412,
1954,KING at WOODBRIDGE,-79.80584,43.23151,
1842,KING at YORK,-79.95093,43.26562,
1843,KING at YORK,-79.95166,43.26586,
1869,KING opposite BATTLEFIELD,-79.76393,43.21837,
356098,KING opposite CAMERON,-79.81037,43.23208,
1846,KING opposite CHURCH,-79.96143,43.26716,
1902,KING opposite EAST BEND,-79.82693,43.24658,
1876,KING opposite FAIRCOURT,-79.76627,43.21871,
1909,KING opposite GAILMONT,-79.78408,43.22368,
1879,KING opposite GREEN FOREST,-79.73220,43.21861,
355297,KING opposite LAWRENCE,-79.79165,43.22728,
356051,KING opposite MACNAB TERMINAL,-79.87015,43.25708,
1926,KING opposite MOUNT ALBION,-79.78925,43.22597,
1928,KING opposite NASH,-79.77789,43.22113,
1935,KING opposite POTTRUFF,-79.78659,43.22469,
1937,KING opposite QUIGLEY,-79.78208,43.22289,
1941,KING opposite ROSEDALE,-79.80803,43.23174,
355942,KING opposite STONEY CREEK CEMETERY,-79.76966,43.21956,
355308,KING opposite SUMMERS LANE,-79.87179,43.25753,
1949,KING opposite WALTER,-79.79995,43.23047,
3072,LAKELAND LOOP,-79.77133,43.26398,
1981,LAKESHORE at BEACHWAY PARK,-79.79988,43.30694,
1984,LAKESHORE at BRANT,-79.79598,43.32460,
1986,LAKESHORE at BURLINGTON,-79.79851,43.32257,
1988,LAKESHORE at HALTON REGION GARAGE,-79.80129,43.31181,
1990,LAKESHORE at JOSEPH BRANT HOSPITAL,-79.80132,43.31622,
1994,LAKESHORE at NELSON,-79.80048,43.32080,
355903,LAKESHORE at NORTH SHORE,-79.80153,43.31942,
1999,LAKESHORE opposite BEACHWAY PARK,-79.80028,43.30783,
1985,LAKESHORE opposite BRANT,-79.79615,43.32429,
1987,LAKESHORE opposite BURLINGTON,-79.79848,43.32246,
1989,LAKESHORE opposite HALTON GARAGE,-79.80094,43.31116,
1991,LAKESHORE opposite JOSEPH BRANT HOSPITAL,-79.80111,43.31579,
1995,LAKESHORE opposite NELSON,-79.79971,43.32123,
1997,LAKESHORE opposite OMAHA,-79.79949,43.30544,
2003,LAWRENCE at GAGE PARK,-79.82949,43.23798,
2004,LAWRENCE at HUXLEY,-79.81549,43.23182,
2007,LAWRENCE at ROSSLYN,-79.82574,43.23611,
2008,LAWRENCE at ROTHSAY,-79.82731,43.23688,
2006,LAWRENCE opposite GAGE PARK,-79.82970,43.23791,
2005,LAWRENCE opposite ROTHSAY,-79.82757,43.23686,
1142,LEVI LOOP,-79.70633,43.22399,
2016,LIMERIDGE at ALBION FALLS,-79.82166,43.20415,
355416,LIMERIDGE at BRITTEN CLOSE,-79.90086,43.22612,
2027,LIMERIDGE at ELGAR,-79.90058,43.22595,
2028,LIMERIDGE at KENDALE,-79.89965,43.22449,
2018,LIMERIDGE at UPPER KENILWORTH,-79.82581,43.20532,
2019,LIMERIDGE at UPPER KENILWORTH,-79.82570,43.20514,
2030,LIMERIDGE at WEST 5TH,-79.89177,43.22151,
2017,LIMERIDGE opposite ALBION FALLS,-79.82194,43.20434,
2029,LIMERIDGE opposite KENDALE,-79.90001,43.22491,
3,Limeridge Terminal,-79.86335,43.21780,
2012,LIME RIDGE TERMINAL PLATFORM 1,-79.86322,43.21810,
356045,LIME RIDGE TERMINAL PLATFORM 2,-79.86322,43.21810,
356044,LIME RIDGE TERMINAL PLATFORM 2,-79.86322,43.21810,
2009,LIME RIDGE TERMINAL PLATFORM 3,-79.86340,43.21787,
2011,LIME RIDGE TERMINAL PLATFORM 4,-79.86345,43.21774,
2010,LIME RIDGE TERMINAL PLATFORM 5,-79.86353,43.21756,
2032,LOCKE at CHARLTON,-79.88662,43.25335,
355734,LOCKE at HUNTER,-79.88503,43.25683,
2033,LOCKE at MAIN,-79.88423,43.25855,
2034,LOCKE at MELBOURNE,-79.88578,43.25532,
2035,LONGWOOD at EDGEVALE,-79.89936,43.26601,
2036,LONGWOOD at FRANKLIN,-79.89798,43.26914,
2041,LONGWOOD at KING,-79.90097,43.26268,
2042,LONGWOOD at KING,-79.90072,43.26287,
355731,LONGWOOD at KING,-79.90097,43.26268,
2044,LONGWOOD at MAIN,-79.90213,43.25872,
2045,LONGWOOD at MARION,-79.90209,43.26002,
355281,LONGWOOD at MARION,-79.90209,43.26002,
355939,LONGWOOD at MCMASTER INNOVATION PARK,-79.90133,43.25655,
2037,LONGWOOD at NORWOOD,-79.89877,43.26732,
2046,LONGWOOD opposite MARION,-79.90172,43.26059,
355940,LONGWOOD opposite MCMASTER INNOVATION PARK,-79.90148,43.25703,
355941,MACKLIN at CORONATION ARENA,-79.89566,43.26453,
355262,MACKLIN at GLEN,-79.89654,43.26263,
2049,MACKLIN at KAY DRAGE PARK,-79.89395,43.26875,
2061,MACNAB at BOLD,-79.87233,43.25276,
2056,MACNAB at CANNON,-79.86880,43.26095,
2062,MACNAB at CHARLTON,-79.87357,43.25003,
2057,MACNAB at COLBOURNE,-79.86762,43.26378,
2063,MACNAB at DUKE,-79.87272,43.25192,
2058,MACNAB at MULBERRY,-79.86822,43.26234,
2059,MACNAB at MURRAY,-79.86687,43.26533,
2065,MACNAB at ROBINSON,-79.87318,43.25089,
2060,MACNAB at YORK,-79.86948,43.25954,
355608,MACNAB TERMINAL PLATFORM 1,-79.87119,43.25588,
355724,MACNAB TERMINAL PLATFORM 2,-79.87107,43.25613,
355609,MACNAB TERMINAL PLATFORM 2,-79.87107,43.25613,
355610,MACNAB TERMINAL PLATFORM 3,-79.87094,43.25640,
355611,MACNAB TERMINAL PLATFORM 4,-79.87081,43.25670,
355612,MACNAB TERMINAL PLATFORM 5,-79.87083,43.25633,
355613,MACNAB TERMINAL PLATFORM 6,-79.87096,43.25606,
355614,MACNAB TERMINAL PLATFORM 7,-79.87108,43.25580,
355725,MACNAB TERMINAL PLATFORM 7,-79.87108,43.25580,
1,MacNab Transit Terminal,-79.87084,43.25642,
2066,MAGNOLIA at DIAMOND,-79.92518,43.23615,
2067,MAGNOLIA at MINSTREL,-79.92512,43.23550,
2069,MAGNOLIA at MOHAWK,-79.92449,43.23397,
2068,MAGNOLIA at MOHAWK,-79.92463,43.23380,
2072,MAIN at ASHFORD,-79.83731,43.24696,
2074,MAIN at BALMORAL,-79.82207,43.24303,
2073,MAIN at BALMORAL,-79.82164,43.24308,
2075,MAIN at BALSAM,-79.83204,43.24552,
2121,MAIN at BAY,-79.87455,43.25647,
2122,MAIN at BAY,-79.87455,43.25645,
2125,MAIN at BOWMAN,-79.91650,43.25771,
2076,MAIN at CAMERON,-79.80759,43.23977,
2128,MAIN at CAROLINE,-79.87690,43.25705,
2127,MAIN at CAROLINE,-79.87690,43.25705,
2129,MAIN at CAROLINE,-79.87690,43.25705,
356010,MAIN at CATHARINE,-79.86583,43.25442,
2077,MAIN at COPE,-79.80527,43.23937,
355954,MAIN at COTTRILL,-79.92784,43.25754,
2132,MAIN at DALEWOOD,-79.91420,43.25777,
2133,MAIN at DALEWOOD,-79.91373,43.25803,
2134,MAIN at DOW,-79.90962,43.25809,
2135,MAIN at DUNDURN,-79.88946,43.25983,
2136,MAIN at DUNDURN,-79.88946,43.25982,
2079,MAIN at EASTBOURNE,-79.84220,43.24824,
2080,MAIN at EMERALD,-79.85451,43.25137,
2137,MAIN at EMERSON,-79.91954,43.25765,
2139,MAIN at EWEN,-79.93224,43.25730,
2082,MAIN at FAIRLEIGH,-79.84393,43.24868,
2083,MAIN at FERGUSON,-79.86195,43.25330,
2084,MAIN at GARSIDE,-79.80793,43.24003,
2087,MAIN at GRAHAM,-79.81463,43.24131,
2086,MAIN at GRAHAM,-79.81472,43.24148,
2140,MAIN at HADDON,-79.91224,43.25781,
2141,MAIN at HADDON,-79.91187,43.25809,
2143,MAIN at HOLLYWOOD,-79.92620,43.25763,
2089,MAIN at HUGHSON,-79.86855,43.25502,
2088,MAIN at HUGHSON,-79.86892,43.25512,
2090,MAIN at HUXLEY,-79.81237,43.24086,
2093,MAIN at JOHN,-79.86711,43.25472,
355449,MAIN at JOHN,-79.86723,43.25476,
2094,MAIN at KENILWORTH,-79.80958,43.24046,
2095,MAIN at KENILWORTH,-79.81013,43.24044,
2096,MAIN at KENSINGTON,-79.82369,43.24358,
2097,MAIN at KING,-79.82435,43.24356,
2144,MAIN at KINGSMOUNT,-79.92728,43.25741,
2145,MAIN at LELAND,-79.92251,43.25756,
2147,MAIN at LONGWOOD,-79.90215,43.25927,
355368,MAIN at LONGWOOD,-79.90171,43.25909,
2146,MAIN at LONGWOOD,-79.90171,43.25909,
2151,MAIN at MACNAB,-79.87179,43.25576,
2150,MAIN at MACNAB,-79.87219,43.25587,
2149,MAIN at MACNAB,-79.87200,43.25582,
2154,MAIN at NORFOLK,-79.92334,43.25772,
2098,MAIN at ONTARIO,-79.85168,43.25066,
355969,MAIN at OSLER,-79.93468,43.25734,
2100,MAIN at OTTAWA,-79.81941,43.24254,
2101,MAIN at OTTAWA,-79.81999,43.24250,
2155,MAIN at PAISLEY,-79.90505,43.25884,
2102,MAIN at PARK ROW,-79.81666,43.24191,
2103,MAIN at PARK ROW,-79.81710,43.24187,
2157,MAIN at PEARL,-79.88289,43.25834,
2156,MAIN at PEARL,-79.88289,43.25834,
2158,MAIN at POULETTE,-79.88602,43.25902,
2160,MAIN at QUEEN,-79.87982,43.25767,
2159,MAIN at QUEEN,-79.87982,43.25767,
2161,MAIN at QUEEN,-79.87982,43.25767,
2123,MAIN at RIFLE RANGE,-79.92958,43.25742,
2104,MAIN at SANFORD,-79.84745,43.24957,
356067,MAIN at SHERMAN,-79.83927,43.24749,
2107,MAIN at STRATHEARNE,-79.80095,43.23809,
2162,MAIN at THORNDALE,-79.92499,43.25749,
2108,MAIN at TRAGINA,-79.80452,43.23901,
2109,MAIN at VICTORIA,-79.85758,43.25216,
2110,MAIN at WALNUT,-79.86388,43.25390,
2111,MAIN at WEIR,-79.80351,43.23885,
2112,MAIN at WELLINGTON,-79.85997,43.25276,
2113,MAIN at WENTWORTH,-79.84940,43.25008,
2164,MAIN at WESTBOURNE,-79.93001,43.25753,
2163,MAIN at WEST PARK,-79.93142,43.25747,
2114,MAIN at WEXFORD,-79.81273,43.24108,
2116,MAIN at WHITE CHAPEL CEMETERY,-79.94084,43.25033,
2165,MAIN at WHITNEY,-79.93977,43.25171,
2153,MAIN opposite 403 RAMP,-79.90669,43.25862,
2124,MAIN opposite BOND,-79.90416,43.25875,
2126,MAIN opposite BOWMAN,-79.91669,43.25802,
2078,MAIN opposite EAST BEND,-79.82889,43.24470,
2138,MAIN opposite EMERSON,-79.91968,43.25795,
2081,MAIN opposite FAIRFIELD,-79.80274,43.23846,
2105,MAIN opposite GARFIELD,-79.83919,43.24746,
2085,MAIN opposite GLENDALE,-79.82723,43.24429,
2148,MAIN opposite MACKLIN,-79.89777,43.25994,
2071,MAIN opposite MELROSE,-79.83439,43.24616,
2115,MAIN opposite WHITE CHAPEL CEMETERY,-79.94115,43.25016,
2166,MAIN opposite WHITNEY,-79.94005,43.25167,
2167,MAPLEWOOD at BALSAM,-79.83269,43.24394,
2168,MAPLEWOOD at BALSAM,-79.83242,43.24401,
2170,MAPLEWOOD at BLAKE,-79.83911,43.24581,
2169,MAPLEWOOD at BLAKE,-79.83939,43.24575,
2172,MAPLEWOOD at GAGE,-79.83089,43.24360,
2171,MAPLEWOOD at GAGE,-79.83076,43.24342,
2174,MAPLEWOOD at PROSPECT,-79.83426,43.24450,
2173,MAPLEWOOD at PROSPECT,-79.83457,43.24444,
2175,MAPLEWOOD at SHERMAN,-79.84038,43.24615,
2176,MAPLEWOOD at SPRINGER,-79.83724,43.24530,
2177,MAPLEWOOD opposite SPRINGER,-79.83666,43.24499,
2179,MARSTON at PARAMOUNT,-79.79883,43.19240,
2178,MARSTON opposite RIDELL,-79.79748,43.19040,
2182,MARTINDALE at GOLFLINKS EAST,-79.93935,43.22858,
2181,MARTINDALE opposite NEVILLE,-79.94199,43.22925,
356026,MCCLURE at ANCASTER CROSSING,-80.01760,43.19710,
356025,MCCLURE at SMARTCENTRES ANCASTER,-80.01748,43.19745,
2191,MCNIVEN at GOLF LINKS,-79.96281,43.22479,
2192,MCNIVEN at MOHAWK,-79.96387,43.22889,
2193,MCNIVEN at ORTON,-79.96345,43.22676,
2194,MCNIVEN at TOMAHAWK,-79.96319,43.22650,
2195,MEADOWBROOK at GALLEY,-80.00538,43.21155,
2197,MEADOWBROOK at MORWICK,-80.00752,43.21535,
2199,MEADOWBROOK at SPEERS,-80.00372,43.20912,
2201,MEADOWBROOK at TRANQUILITY,-80.00658,43.21247,
2196,MEADOWBROOK opposite GALLEY,-80.00509,43.21153,
2198,MEADOWBROOK opposite MORWICK,-80.00727,43.21504,
2200,MEADOWBROOK opposite SPEERS,-80.00341,43.20905,
2202,MEADOWBROOK opposite TRANQUILITY,-80.00646,43.21261,
2183,MEADOWLANDS TERMINAL PLATFORM 1,-79.94471,43.22740,
2184,MEADOWLANDS TERMINAL PLATFORM 2,-79.94485,43.22786,
355962,MEADOWLANDS TERMINAL PLATFORM 3,-79.94498,43.22828,
2203,MELVIN at ADAIR,-79.78684,43.24276,
2205,MELVIN at AIRDRIE,-79.78270,43.24183,
2207,MELVIN at BERNARD,-79.78459,43.24226,
2208,MELVIN at JULIAN,-79.79346,43.24434,
356094,MELVIN at PARKDALE,-79.78869,43.24320,
2210,MELVIN at PARKDALE,-79.78875,43.24335,
2204,MELVIN opposite ADAIR,-79.78653,43.24285,
2206,MELVIN opposite BLAIR,-79.78385,43.24226,
2209,MELVIN opposite MACLAREN,-79.78150,43.24172,
355366,MILL at DUNDAS,-79.89122,43.33387,
355342,MILL at DUNDAS,-79.89118,43.33403,
2212,MILL at HEAD,-79.97457,43.26819,
355367,MILL at MOUNTAIN BROW,-79.88461,43.32922,
355341,MILL at MOUNTAIN BROW,-79.88428,43.32917,
2213,MILL opposite WELLINGTON,-79.97054,43.26701,
355959,MOHAWK 4 ICE CENTRE,-79.81641,43.20889,
2266,MOHAWK at ASHTON,-79.90665,43.23228,
2268,MOHAWK at BUCKINGHAM EAST,-79.90777,43.23270,
2269,MOHAWK at BUCKINGHAM WEST,-79.91498,43.23355,
2270,MOHAWK at CALEDON,-79.88300,43.22903,
2220,MOHAWK at CAMDEN,-79.84886,43.22071,
2221,MOHAWK at DODSON,-79.87423,43.22699,
2223,MOHAWK at EAST 16TH,-79.86586,43.22489,
2225,MOHAWK at EAST 25TH,-79.85783,43.22292,
2226,MOHAWK at EAST 27TH,-79.85566,43.22236,
2228,MOHAWK at EAST 36TH,-79.84661,43.22015,
2229,MOHAWK at EAST 42ND,-79.84111,43.21874,
2230,MOHAWK at EAST 45TH,-79.83787,43.21788,
2271,MOHAWK at GARTH,-79.90129,43.23128,
2272,MOHAWK at GARTH,-79.90068,43.23105,
2232,MOHAWK at GRENADIER,-79.82504,43.21484,
2233,MOHAWK at HAYDEN,-79.87900,43.22807,
2273,MOHAWK at JUANITA,-79.90559,43.23213,
2234,MOHAWK at LAWFIELD,-79.84644,43.21991,
2274,MOHAWK at MAGNOLIA,-79.92430,43.23366,
2275,MOHAWK at MAGNOLIA,-79.92479,43.23355,
2235,MOHAWK at MALL,-79.85906,43.22300,
2276,MOHAWK at MCNIVEN,-79.96425,43.22926,
2237,MOHAWK at MEAFORD,-79.84936,43.22063,
2277,MOHAWK at MILLBANK,-79.89628,43.23030,
2238,MOHAWK at MOXLEY,-79.83057,43.21600,
2239,MOHAWK at MOXLEY,-79.83018,43.21605,
2278,MOHAWK at NEYER,-79.88915,43.23076,
2279,MOHAWK at OLD MOHAWK,-79.93408,43.23288,
2240,MOHAWK at PALMER,-79.84066,43.21841,
2215,MOHAWK at REGENCY,-79.82622,43.21498,
2281,MOHAWK at RICE,-79.91658,43.23372,
3252,MOHAWK at RICE,-79.91757,43.23373,
2282,MOHAWK at RICE,-79.91706,43.23361,
2283,MOHAWK at SCENIC,-79.92911,43.23350,
2241,MOHAWK at SEVEN OAKS,-79.86800,43.22542,
2284,MOHAWK at SOUTHLEA,-79.89420,43.23040,
1577,MOHAWK at STONE CHURCH,-79.93709,43.22856,
2243,MOHAWK at TERRACE,-79.87909,43.22821,
2245,MOHAWK at UPPER GAGE,-79.84340,43.21935,
2244,MOHAWK at UPPER GAGE,-79.84319,43.21908,
2286,MOHAWK at UPPER HORNING,-79.92897,43.23332,
2247,MOHAWK at UPPER JAMES,-79.88128,43.22880,
2246,MOHAWK at UPPER JAMES,-79.88091,43.22846,
2216,MOHAWK at UPPER KENILWORTH,-79.82235,43.21405,
355967,MOHAWK at UPPER KENILWORTH,-79.82246,43.21419,
355956,MOHAWK at UPPER OTTAWA,-79.83299,43.21669,
2248,MOHAWK at UPPER OTTAWA,-79.83396,43.21675,
2288,MOHAWK at UPPER PARADISE,-79.91206,43.23307,
2287,MOHAWK at UPPER PARADISE,-79.91132,43.23318,
2250,MOHAWK at UPPER SHERMAN,-79.85238,43.22155,
2249,MOHAWK at UPPER SHERMAN,-79.85227,43.22131,
2252,MOHAWK at UPPER WELLINGTON,-79.87242,43.22653,
2251,MOHAWK at UPPER WELLINGTON,-79.87225,43.22629,
2254,MOHAWK at UPPER WENTWORTH,-79.86261,43.22409,
355409,MOHAWK at UPPER WENTWORTH,-79.86185,43.22375,
2255,MOHAWK at WARREN,-79.87695,43.22768,
2289,MOHAWK at WEST 15TH,-79.89693,43.23050,
2291,MOHAWK at WEST 18TH,-79.89964,43.23098,
2293,MOHAWK at WEST 5TH,-79.88672,43.23016,
2294,MOHAWK at WEST 5TH,-79.88577,43.22974,
355571,MOHAWK COLLEGE TERMINAL PLTFRM 1,-79.88416,43.23888,
355572,MOHAWK COLLEGE TERMINAL PLTFRM 2,-79.88402,43.23855,
355573,MOHAWK COLLEGE TERMINAL PLTFRM 3,-79.88367,43.23838,
355574,MOHAWK COLLEGE TERMINAL PLTFRM 4,-79.88377,43.23812,
355575,MOHAWK COLLEGE TERMINAL PLTFRM 5,-79.88317,43.23791,
2265,MOHAWK opposite AMANDA,-79.88361,43.22939,
2267,MOHAWK opposite BUCKINGHAM,-79.91471,43.23338,
2222,MOHAWK opposite DODSON,-79.87451,43.22693,
2224,MOHAWK opposite EAST 16TH,-79.86600,43.22473,
2227,MOHAWK opposite EAST 27TH,-79.85524,43.22206,
2231,MOHAWK opposite EAST 45TH,-79.83810,43.21773,
2236,MOHAWK opposite MALL,-79.85946,43.22332,
2259,MOHAWK opposite NEYER,-79.88953,43.23070,
2280,MOHAWK opposite OLD MOHAWK,-79.93445,43.23221,
2242,MOHAWK opposite SEVEN OAKS,-79.86843,43.22533,
2285,MOHAWK opposite SOUTHLEA,-79.89370,43.23056,
2256,MOHAWK opposite WARREN,-79.87669,43.22748,
2290,MOHAWK opposite WEST 16TH,-79.89799,43.23054,
355797,MOUNTAIN TRANSIT CENTRE PLATFORM 1,-79.90181,43.18521,
355796,MOUNTAIN TRANSIT CENTRE PLATFORM 2,-79.90205,43.18467,
355798,MOUNTAIN TRANSIT CENTRE PLATFORM 3,-79.90193,43.18468,
2295,MOUNT ALBION at ALBRIGHT,-79.79368,43.21900,
2296,MOUNT ALBION at ALBRIGHT,-79.79368,43.21857,
2297,MOUNT ALBION at CHERRY HILL,-79.79220,43.22204,
2299,MOUNT ALBION at GLEN CASTLE,-79.80169,43.20960,
2301,MOUNT ALBION at GOLFCREST,-79.79816,43.21180,
2304,MOUNT ALBION at GREENHILL,-79.79521,43.21569,
2303,MOUNT ALBION at GREENHILL,-79.79531,43.21586,
2305,MOUNT ALBION at HIXON,-79.79159,43.22389,
2306,MOUNT ALBION at HIXON,-79.79126,43.22439,
2307,MOUNT ALBION at KINGSWOOD,-79.79640,43.21440,
2309,MOUNT ALBION LOOP,-79.80351,43.20877,
2298,MOUNT ALBION opposite CHERRY HILL,-79.79229,43.22221,
2300,MOUNT ALBION opposite GLEN CASTLE,-79.80183,43.20937,
2302,MOUNT ALBION opposite GOLFCREST,-79.79824,43.21146,
2308,MOUNT ALBION opposite KINGSWOOD,-79.79640,43.21409,
355851,MUD at PRITCHARD,-79.81652,43.20067,
2315,NASH at BARTON,-79.77041,43.23849,
2317,NASH at DENTEN,-79.77620,43.22473,
2327,NASH at GLEN ECHO,-79.77475,43.22820,
2319,NASH at KENTLEY,-79.77242,43.23344,
2320,NASH at KENTLEY,-79.77247,43.23381,
2330,NASH at KING,-79.77720,43.22191,
2329,NASH at KING,-79.77762,43.22138,
2321,NASH at NUGENT NORTH,-79.77140,43.23649,
2322,NASH at NUGENT SOUTH,-79.77320,43.23197,
2331,NASH at QUEENSTON,-79.77385,43.23041,
2325,NASH at QUEENSTON,-79.77383,43.22978,
2332,NASH at RAINBOW,-79.77691,43.22305,
2318,NASH opposite DENTEN,-79.77616,43.22437,
2328,NASH opposite GLEN ECHO,-79.77441,43.22850,
2324,NASH opposite NUGENT NORTH,-79.77127,43.23632,
2323,NASH opposite NUGENT SOUTH,-79.77305,43.23186,
355258,NASH opposite RAINBOW,-79.77666,43.22317,
2334,NEBO at HEMPSTEAD,-79.83593,43.19568,
2335,NEBO at LANCING,-79.83865,43.19126,
2336,NEBO at RYMAL,-79.83938,43.18970,
2337,NEBO at STONE CHURCH,-79.83498,43.19762,
2338,NEVILLE at MARTINDALE,-79.94226,43.22880,
2339,OGILVIE at GOVERNORS,-79.95483,43.26250,
2340,OGILVIE at GOVERNORS,-79.95487,43.26248,52A-Dundas First Solution (Outbound)
2341,OGILVIE at OLD ANCASTER,-79.95319,43.25987,
2343,OGILVIE at OLD ANCASTER,-79.95290,43.25992,52A-Dundas First Solution (Inbound)
2342,OGILVIE at SOUTH,-79.95315,43.25966,
2344,OLD ANCASTER at DUNDANA,-79.95380,43.25886,52A-Dundas First Solution (Inbound)
remix-c80e9b56-b956-487e-98e3-60997434b8d4,Old Ancaster at Little John's,-79.95530,43.25723,52A-Dundas First Solution (Inbound & Outbound)
2346,OLD ANCASTER at PIMLICO,-79.95400,43.25894,52A-Dundas First Solution (Outbound)
2347,OLD ANCASTER at PLEASANT,-79.95700,43.25574,52A-Dundas First Solution (Outbound)
remix-1d2ae361-bdbe-42a9-ad3f-68fab63fa469,Old Ancaster opposite Leisure,-79.95956,43.25383,52A-Dundas First Solution (Inbound)
2348,OLD ANCASTER opposite PLEASANT,-79.95694,43.25559,52A-Dundas First Solution (Inbound)
3166,Opposite 1039 WILSON,-79.95464,43.24228,
2984,Opposite 1079 UPPER WELLINGTON,-79.87431,43.22055,
1150,Opposite 107 BEACH,-79.77352,43.26640,
1223,Opposite 1141 BURLINGTON,-79.81485,43.26085,
2860,Opposite 1190 UPPER OTTAWA,-79.83785,43.20522,
2675,Opposite 1320 STONE CHURCH,-79.83166,43.19717,
355538,Opposite 1325 CORMORANT,-80.02551,43.18770,
2014,Opposite 1350 LIMERIDGE,-79.82385,43.20482,
1515,Opposite 1440 GARTH,-79.90914,43.21417,
355825,Opposite 1621 WATERDOWN,-79.87247,43.32100,
2117,Opposite 1940 MAIN,-79.94256,43.24800,
1502,Opposite 194 GAGE,-79.83094,43.24227,
355781,Opposite 198 BARTON,-79.73668,43.23193,
356075,Opposite 211 PRITCHARD,-79.81876,43.19517,
2024,Opposite 235 LIMERIDGE,-79.89609,43.22268,
355289,Opposite 236 STONE CHURCH,-79.90034,43.21380,
1041,Opposite 2553 BARTON,-79.75583,43.23570,
2026,Opposite 273 LIMERIDGE,-79.89803,43.22315,
1866,Opposite 342 KING,-79.73073,43.21899,
1495,Opposite 377 GAGE,-79.82311,43.26083,
1823,Opposite 455 KENILWORTH,-79.80408,43.25387,
1690,Opposite 490 HIGHWAY 8,-79.71629,43.21660,
2002,Opposite 50 LAWRENCE,-79.83114,43.23863,
2546,Opposite 70 RICE,-79.91669,43.23504,
1669,Opposite 715 HIGHWAY 8,-79.69768,43.21188,
2263,Opposite 770 MOHAWK,-79.92062,43.23355,
2739,Opposite 877 UPPER GAGE,-79.84357,43.21778,
1982,Opposite 938 LAKESHORE,-79.79899,43.30358,
2350,ORCHARD at PLEASANT,-79.97120,43.25045,52A-Dundas First Solution (Inbound & Outbound)
remix-238f0e7c-971c-4af1-9e83-9cb1a9d159da,Osler at Ancaster,-79.94592,43.26178,
2352,OSLER at GRANT,-79.94139,43.25906,
2130,OSLER at MAIN,-79.93541,43.25726,
355971,OSLER at UNIVERSITY PLAZA,-79.94239,43.25946,
355970,OSLER opposite UNIVERSITY PLAZA,-79.94272,43.25972,
355537,OSPREY at CORMORANT,-80.02830,43.18744,
355540,OSPREY at CORMORANT,-80.02819,43.18762,
355735,OSPREY opposite SANDHILL,-80.02379,43.19288,
2356,OTTAWA at BARTON,-79.81619,43.25158,
2355,OTTAWA at BARTON,-79.81611,43.25129,
2357,OTTAWA at BEACH,-79.81436,43.25559,
2358,OTTAWA at BURLINGTON,-79.81252,43.25996,
2360,OTTAWA at CAMPBELL,-79.81691,43.24968,
2361,OTTAWA at CANNON,-79.81769,43.24738,
2362,OTTAWA at CANNON,-79.81776,43.24767,
2363,OTTAWA at CRAIGMILLER,-79.81550,43.25326,
2365,OTTAWA at DUNSMURE,-79.81884,43.24451,
2359,OTTAWA at EDINBURGH,-79.81705,43.24908,
2368,OTTAWA at MAIN,-79.81961,43.24273,
2366,OTTAWA at MAIN,-79.81979,43.24278,
2370,OTTAWA at MAPLE,-79.82043,43.24105,
2369,OTTAWA at MAPLE,-79.82017,43.24122,
2367,OTTAWA at ROXBOROUGH,-79.81841,43.24597,
2364,OTTAWA opposite CRAIGMILLER,-79.81550,43.25279,
2371,PARADISE at MAIN,-79.89966,43.26076,
2374,PARAMOUNT at AMBERWOOD,-79.79941,43.20266,
2376,PARAMOUNT at APEX,-79.79451,43.20144,
2377,PARAMOUNT at ASTRA,-79.80230,43.20216,
2379,PARAMOUNT at ATLAS,-79.79540,43.19739,
2382,PARAMOUNT at AUDUBON,-79.79609,43.20313,
2384,PARAMOUNT at AUDUBON,-79.79421,43.19995,
2385,PARAMOUNT at BENWOOD,-79.80541,43.19252,
355435,PARAMOUNT at HICKORY,-79.80315,43.20213,
2388,PARAMOUNT at KINGSVIEW,-79.80589,43.19966,
2389,PARAMOUNT at KINGSVIEW,-79.80582,43.20005,
2390,PARAMOUNT at MARSTON,-79.79939,43.19329,
2392,PARAMOUNT at MUD,-79.79636,43.19533,
2393,PARAMOUNT at PEMBROKE,-79.79829,43.19362,
2373,PARAMOUNT at UPPER MOUNT ALBION,-79.81047,43.19196,
2397,PARAMOUNT at VALLEY PARK LOOP,-79.79636,43.19475,
2381,PARAMOUNT opposite ACKLAND,-79.79446,43.20062,
2375,PARAMOUNT opposite AMBERWOOD,-79.79956,43.20279,
2380,PARAMOUNT opposite ATLAS,-79.79506,43.19781,
2383,PARAMOUNT opposite AUDUBON,-79.79584,43.20292,
2387,PARAMOUNT opposite CHILTON,-79.80280,43.19279,
2391,PARAMOUNT opposite MISTYWOOD,-79.79495,43.19866,
2394,PARAMOUNT opposite PEMBROKE,-79.79715,43.19385,
2400,PARK at CHARLTON,-79.87519,43.25075,
2403,PARKDALE at BARTON,-79.78838,43.24468,
2402,PARKDALE at BARTON,-79.78843,43.24512,
2405,PARKDALE at BRAMPTON,-79.78539,43.25210,
2404,PARKDALE at BRAMPTON,-79.78536,43.25264,
2406,PARKDALE at BRITANNIA,-79.78974,43.24200,
2407,PARKDALE at BRITANNIA,-79.78955,43.24200,
2408,PARKDALE at BURLAND,-79.78627,43.25026,
2425,PARKDALE at CENTRAL,-79.79347,43.23268,
2424,PARKDALE at CENTRAL,-79.79358,43.23307,
2409,PARKDALE at DUNSMURE,-79.79158,43.23777,
2410,PARKDALE at DUNSMURE,-79.79119,43.23816,
2426,PARKDALE at KING,-79.79486,43.22992,
2427,PARKDALE at LUCERNE,-79.79433,43.23120,
2428,PARKDALE at LUCERNE,-79.79429,43.23087,
2411,PARKDALE at MAHONY,-79.78776,43.24675,
2414,PARKDALE at MAIN,-79.79202,43.23623,
2413,PARKDALE at MAIN,-79.79222,43.23610,
2415,PARKDALE at MEAD,-79.78462,43.25394,
2417,PARKDALE at MELVIN,-79.78931,43.24308,
2418,PARKDALE at MELVIN,-79.78901,43.24316,
2419,PARKDALE at MORLEY,-79.78586,43.25091,
2429,PARKDALE at QUEENSTON,-79.79280,43.23431,
2420,PARKDALE at QUEENSTON,-79.79293,43.23456,
2421,PARKDALE at RENNIE,-79.78641,43.24961,
2422,PARKDALE at ROXBOROUGH,-79.79067,43.23984,
2423,PARKDALE at ROXBOROUGH,-79.79057,43.23963,
2412,PARKDALE opposite MAHONY,-79.78761,43.24669,
2416,PARKDALE opposite MEAD,-79.78491,43.25368,
355358,PARKSIDE at BOULDING,-79.88990,43.34774,
355354,PARKSIDE at BRAEHEID,-79.91193,43.33151,
355353,PARKSIDE at DUNCAN,-79.91565,43.32878,
355864,PARKSIDE at HAMILTON,-79.90456,43.33710,
355356,PARKSIDE at HAMILTON,-79.90425,43.33713,
355352,PARKSIDE at HOLLYBUSH,-79.91836,43.32679,
355865,PARKSIDE at KEEWAYDIN,-79.90977,43.33325,
355355,PARKSIDE at KEEWAYDIN,-79.90957,43.33323,
355867,PARKSIDE at MOSAIC,-79.91554,43.32900,
356041,PARKSIDE at SADIELOU,-79.91847,43.32692,
355744,PARKSIDE at SPRING CREEK,-79.88670,43.35017,
355357,PARKSIDE at VICTORIA,-79.89939,43.34075,
355866,PARKSIDE at WIMBERLY,-79.91205,43.33158,
355862,PARKSIDE opposite BOULDING,-79.88981,43.34799,
355863,PARKSIDE opposite VICTORIA,-79.89916,43.34107,
2430,PIRIE at DAVIDSON,-79.98669,43.25807,
2432,PIRIE opposite NEWCOMBE,-79.98868,43.25775,
2434,PLAINS at BOTANICAL,-79.87934,43.29108,
2436,PLAINS at SPRING GARDENS,-79.88607,43.29299,
2438,PLAINS at YORK,-79.88917,43.29366,
2435,PLAINS opposite BOTANICAL,-79.87945,43.29132,
2437,PLAINS opposite SPRING GARDENS,-79.88600,43.29313,
2440,PLEASANT at EDENBRIDGE,-79.96591,43.25350,52A-Dundas First Solution (Outbound)
2441,PLEASANT at GREEN MEADOW,-79.96782,43.25216,52A-Dundas First Solution (Outbound)
2442,PLEASANT at SUNRISE,-79.96008,43.25519,52A-Dundas First Solution (Outbound)
2439,PLEASANT opposite  AUTUMN LEAF,-79.96251,43.25378,52A-Dundas First Solution (Outbound)
2038,PRINCESS POINT LOOP,-79.89521,43.27242,
356009,PRINCETON opposite VALECREST,-79.82175,43.22726,
2444,PRITCHARD at HIGHLAND,-79.82000,43.19171,
355848,PRITCHARD at MUD,-79.81634,43.20065,
2445,PROVINCE at JUSTINE,-79.81850,43.23530,
2446,QUEEN at ABERDEEN,-79.88307,43.24889,
2447,QUEEN at ABERDEEN,-79.88304,43.24856,
2449,QUEEN at CHARLTON,-79.88173,43.25220,
2450,QUEEN at DUKE,-79.88111,43.25372,
2452,QUEEN at STANLEY,-79.88233,43.25073,
2453,QUEEN at STANLEY,-79.88233,43.25073,
2455,QUEENSDALE at EAST 13TH,-79.86372,43.23849,
2457,QUEENSDALE at EAST 15TH,-79.86113,43.23790,
2458,QUEENSDALE at EAST 16TH,-79.86080,43.23793,
2459,QUEENSDALE at EAST 18TH,-79.85864,43.23723,
2460,QUEENSDALE at EAST 18TH,-79.85832,43.23729,
2461,QUEENSDALE at EAST 22ND,-79.85460,43.23618,
2462,QUEENSDALE at EAST 22ND,-79.85390,43.23615,
2464,QUEENSDALE at EAST 23RD,-79.85249,43.23564,
2463,QUEENSDALE at EAST 24TH,-79.85137,43.23552,
2465,QUEENSDALE at EAST 27TH,-79.84876,43.23476,
2467,QUEENSDALE at EAST 33RD,-79.84369,43.23391,
2469,QUEENSDALE at EAST 35TH,-79.84122,43.23336,
2470,QUEENSDALE at EAST 36TH,-79.84064,43.23338,
2472,QUEENSDALE at EAST 42ND,-79.83496,43.23191,
2471,QUEENSDALE at EAST 42ND,-79.83534,43.23187,
2473,QUEENSDALE at EAST 44TH,-79.83348,43.23132,
2474,QUEENSDALE at RENDELL,-79.83015,43.23046,
2475,QUEENSDALE at RENDELL,-79.82980,43.23052,
2476,QUEENSDALE at SHARON,-79.83263,43.23122,
356076,QUEENSDALE at UPPER GAGE,-79.83752,43.23264,
2477,QUEENSDALE at UPPER GAGE,-79.83728,43.23243,
2479,QUEENSDALE at UPPER OTTAWA,-79.82795,43.22992,
2481,QUEENSDALE at UPPER SHERMAN,-79.84613,43.23430,
2480,QUEENSDALE at UPPER SHERMAN,-79.84650,43.23424,
2482,QUEENSDALE at UPPER WELLINGTON,-79.86598,43.23906,
2483,QUEENSDALE at UPPER WENTWORTH,-79.85640,43.23666,
2484,QUEENSDALE at UPPER WENTWORTH,-79.85597,43.23670,
2456,QUEENSDALE opposite EAST 13TH,-79.86392,43.23870,
2466,QUEENSDALE opposite EAST 27TH,-79.84830,43.23480,
2493,QUEENSTON at ADAIR,-79.79067,43.23399,
2495,QUEENSTON at CLAPHAM,-79.77056,43.22925,
2496,QUEENSTON at COCHRANE,-79.80056,43.23676,
2497,QUEENSTON at CRAIGROYSTON,-79.79883,43.23574,
2498,QUEENSTON at DELENA,-79.79009,43.23370,
2500,QUEENSTON at DONN,-79.75007,43.22491,
2499,QUEENSTON at DONN,-79.74986,43.22464,
355948,QUEENSTON at FIESTA MALL,-79.74801,43.22429,
2507,QUEENSTON at IRENE,-79.76280,43.22772,
2509,QUEENSTON at ISABEL,-79.79518,43.23504,
2511,QUEENSTON at KENORA,-79.76781,43.22890,
2512,QUEENSTON at LAKE,-79.75449,43.22595,
2513,QUEENSTON at LAKE,-79.75567,43.22599,
2514,QUEENSTON at NASH,-79.77444,43.23023,
2515,QUEENSTON at NASH,-79.77423,43.22999,
2516,QUEENSTON at PARKDALE,-79.79337,43.23460,
2517,QUEENSTON at PARKDALE,-79.79293,43.23445,
2518,QUEENSTON at POTTRUFF,-79.78104,43.23176,
2485,QUEENSTON at POTTRUFF,-79.78109,43.23170,
355947,QUEENSTON at QUEENSTON PLACE,-79.77650,43.23059,
2519,QUEENSTON at REID,-79.78839,43.23341,
2520,QUEENSTON at REID,-79.78827,43.23318,
2521,QUEENSTON at RIVERDALE,-79.76112,43.22748,
2522,QUEENSTON at ROSEWOOD,-79.79905,43.23598,
2523,QUEENSTON at WALTER,-79.79747,43.23562,
2525,QUEENSTON at WOODMAN,-79.77882,43.23109,
2524,QUEENSTON at WOODMAN,-79.77880,43.23128,
318,QUEENSTON & GRAY,-79.74408,43.22340,
2488,QUEENSTON opposite CLAPHAM,-79.77043,43.22936,
2489,QUEENSTON opposite EASTGATE SQUARE,-79.76750,43.22865,
2508,QUEENSTON opposite IRENE,-79.76294,43.22791,
2510,QUEENSTON opposite ISABEL,-79.79598,43.23515,
355946,QUEENSTON opposite QUEENSTON PLACE,-79.77686,43.23077,
2490,QUEENSTON opposite RIVERDALE,-79.76119,43.22737,
2527,QUIGLEY at ALBRIGHT,-79.78463,43.21636,
2528,QUIGLEY at ANGUS,-79.78348,43.21882,
2530,QUIGLEY at GREENHILL,-79.78736,43.21041,
2532,QUIGLEY at GREENHILL,-79.78741,43.21024,
2531,QUIGLEY at GREENHILL,-79.78763,43.20989,
2534,QUIGLEY at KING,-79.78178,43.22226,
2533,QUIGLEY at KING,-79.78158,43.22214,
2535,QUIGLEY at PINARD,-79.78282,43.22025,
2537,QUIGLEY at ST. ANDREWS,-79.78546,43.21424,
2539,QUIGLEY at VEEVERS,-79.78636,43.21187,
2526,QUIGLEY opposite ALBRIGHT,-79.78426,43.21671,
2529,QUIGLEY opposite ANGUS,-79.78356,43.21888,
2536,QUIGLEY opposite PINARD,-79.78301,43.22025,
2538,QUIGLEY opposite ST. ANDREWS,-79.78535,43.21401,
2540,QUIGLEY opposite VEEVERS,-79.78684,43.21145,
2541,REBECCA at HUGHSON,-79.86682,43.25801,
356043,REDFERN at JEWEL,-79.91685,43.24138,
2542,REDFERN at ST. PETERS,-79.91982,43.24085,
2544,REID at GLENGROVE,-79.78599,43.23809,
2543,REID opposite DUNSMURE,-79.78635,43.23722,
2547,RICE at CHEDMAC,-79.91604,43.23694,
2549,RICE at SANATORIUM,-79.91579,43.23700,
2550,ROSEDALE at DUMBARTON,-79.81149,43.22285,
2551,ROSEDALE at DUNDONALD,-79.81071,43.22471,
2552,ROSEDALE at DUNKIRK,-79.80916,43.22838,
2553,ROSEDALE at GREENHILL,-79.81208,43.22146,
2554,ROSEDALE at LAWRENCE,-79.80841,43.23022,
2555,ROSEDALE at MONTROSE,-79.80986,43.22672,
2556,ROSSLYN at JUSTINE,-79.82561,43.23656,
2557,ROUSSEAUX at ACADEMY,-79.97089,43.22971,
2560,ROUSSEAUX at WILSON,-79.97368,43.23073,
2558,ROUSSEAUX opposite ACADEMY,-79.97073,43.22974,
2562,ROXBOROUGH at ADAIR,-79.78806,43.23923,
2561,ROXBOROUGH at ADAIR,-79.78890,43.23926,
2563,ROXBOROUGH at ADELINE,-79.79282,43.24016,
2565,ROXBOROUGH at BELAND,-79.78688,43.23880,
2566,ROXBOROUGH at IVON,-79.79345,43.24047,
2567,ROXBOROUGH at JULIAN,-79.79489,43.24066,
2570,ROXBOROUGH at PARKDALE,-79.79028,43.23970,
2569,ROXBOROUGH at PARKDALE,-79.79080,43.23967,
2571,ROXBOROUGH at STRATHEARNE,-79.79867,43.24174,
355690,ROXBOROUGH at STRATHEARNE,-79.79856,43.24158,
2573,ROXBOROUGH at TOLTON,-79.79627,43.24117,
2572,ROXBOROUGH at TOLTON,-79.79655,43.24108,
355396,RYMAL at ARROWHEAD,-79.86640,43.19584,
355384,RYMAL at  ATESSA,-79.88773,43.20121,
355813,RYMAL at CELESTIAL,-79.80171,43.17893,
355957,RYMAL at CHARLESWOOD,-79.79911,43.17834,
355557,RYMAL at DAKOTA,-79.81486,43.18192,
355371,RYMAL at DARTNALL,-79.83360,43.18798,
355405,RYMAL at DARTNALL,-79.83310,43.18775,
355833,RYMAL at DAVINCI,-79.91739,43.20828,
355399,RYMAL at DERBY,-79.85077,43.19198,
2577,RYMAL at EVA,-79.86034,43.19450,
355558,RYMAL at FLETCHER,-79.80594,43.17987,
356034,RYMAL at FLETCHER'S SQUARE,-79.79178,43.17655,
356016,RYMAL at GARTH,-79.91271,43.20723,
355979,RYMAL at GARTH,-79.91256,43.20712,
355406,RYMAL at GLOVER,-79.82597,43.18615,
355400,RYMAL at GRAYROCKS,-79.84829,43.19137,
2586,RYMAL at HAZELTON,-79.90595,43.20569,
2587,RYMAL at KONSTANTINE,-79.90050,43.20443,
2588,RYMAL at KRIEGHOFF,-79.90115,43.20441,
355936,RYMAL at MEADOWBANK,-79.92513,43.21015,
2580,RYMAL at MILES,-79.85980,43.19424,
355403,RYMAL at NEBO,-79.83956,43.18927,
355373,RYMAL at NEBO,-79.83931,43.18932,
355899,RYMAL at PRITCHARD,-79.82248,43.18521,
355376,RYMAL at ROCKLAND,-79.84833,43.19149,
355988,RYMAL at RYMAL SQUARE PLAZA,-79.87042,43.19695,
355518,RYMAL at SECOND,-79.79526,43.17759,
2589,RYMAL at SOUTH HAMILTON SQUARE MALL,-79.89539,43.20321,
355387,RYMAL at SPADARA,-79.91718,43.20829,
355393,RYMAL at SPRINGSIDE,-79.88759,43.20105,
355986,RYMAL at SULMONA,-79.85609,43.19330,
355560,RYMAL at TERRYBERRY,-79.78666,43.17546,
355469,RYMAL at TRINITY CHURCH,-79.81927,43.18298,
355983,RYMAL at TURNER PARK,-79.87870,43.19890,
355935,RYMAL at UPPER CENTENNIAL,-79.77838,43.17369,
355378,RYMAL at UPPER GAGE,-79.85368,43.19280,
355987,RYMAL at UPPER GAGE,-79.85406,43.19280,
355981,RYMAL at UPPER JAMES,-79.89184,43.20215,
355385,RYMAL at UPPER JAMES,-79.89318,43.20258,
355375,RYMAL at UPPER OTTAWA,-79.84383,43.19037,
355401,RYMAL at UPPER OTTAWA,-79.84417,43.19037,
355389,RYMAL at UPPER PARADISE,-79.92251,43.20947,
355388,RYMAL at UPPER PARADISE,-79.92226,43.20951,
355379,RYMAL at UPPER SHERMAN,-79.86346,43.19524,
355397,RYMAL at UPPER SHERMAN,-79.86407,43.19530,
355982,RYMAL at UPPER WELLINGTON,-79.88350,43.20008,
355383,RYMAL at UPPER WELLINGTON,-79.88304,43.20007,
355989,RYMAL at UPPER WENTWORTH,-79.87345,43.19772,
355985,RYMAL at UPPER WENTWORTH,-79.87340,43.19762,
355984,RYMAL at UPPER WENTWORTH WEST,-79.87460,43.19794,
355561,RYMAL at WALMART,-79.78353,43.17475,
2592,RYMAL at WEST 5TH,-79.89731,43.20362,
355980,RYMAL at WEST 5TH,-79.89772,43.20355,
2593,RYMAL at WESTLAWN,-79.90450,43.20518,
2595,RYMAL at WESTMOUNT HEALTH CENTRE,-79.92605,43.21015,
355517,RYMAL at WHITEDEER,-79.78645,43.17554,
355380,RYMAL opposite ARROWHEAD,-79.86662,43.19602,
355812,RYMAL opposite CELESTIAL,-79.80165,43.17898,
355958,RYMAL opposite CHARLESWOOD,-79.79909,43.17841,
356082,RYMAL opposite DAKOTA,-79.81510,43.18216,
355519,RYMAL opposite FLETCHER,-79.80507,43.17980,
356048,RYMAL opposite GLANCASTER,-79.92786,43.21046,
355370,RYMAL opposite GLOVER,-79.82544,43.18614,
2585,RYMAL opposite HAZELTON,-79.90605,43.20556,
355900,RYMAL opposite PRITCHARD,-79.82282,43.18525,
355559,RYMAL opposite SECOND,-79.79599,43.17760,
2590,RYMAL opposite SOUTH HAMILTON SQUARE,-79.89582,43.20308,
2576,RYMAL opposite SULMONA,-79.85562,43.19331,
355476,RYMAL opposite TRINITY CHURCH,-79.81984,43.18341,
355990,RYMAL opposite TURNER PARK,-79.87881,43.19902,
355516,RYMAL opposite WALMART,-79.78316,43.17478,
2594,RYMAL opposite WESTLAWN,-79.90388,43.20522,
2596,SAN ANTONIO at ARGO,-79.92677,43.24088,
2597,SAN ANTONIO at SAN REMO,-79.92709,43.23894,
2607,SANATORIUM at EVEL PAVILION,-79.91493,43.24055,
2609,SANATORIUM at GARTH,-79.90116,43.23359,
2612,SANATORIUM at RICE,-79.91534,43.23708,
2611,SANATORIUM at RICE,-79.91535,43.23721,
2615,SANATORIUM at SCENIC EAST,-79.91521,43.24255,
2616,SANATORIUM at SCENIC WEST,-79.91848,43.24562,
2617,SANATORIUM at SCENIC WEST,-79.91814,43.24547,
2618,SANATORIUM at UPPER PARADISE,-79.91021,43.23600,
2619,SANATORIUM at UPPER PARADISE,-79.91057,43.23595,
2620,SANATORIUM at WEST 22ND,-79.90271,43.23413,
2622,SANATORIUM at WEST 24TH,-79.90492,43.23465,
2624,SANATORIUM at WEST 26TH,-79.90684,43.23515,
2626,SANATORIUM at WEST 33RD,-79.91326,43.23669,
2627,SANATORIUM at WILCOX BUILDING,-79.91571,43.23819,
2606,SANATORIUM BROW BUILDING LOOP,-79.91668,43.24516,
355999,SANATORIUM opposite BROW BUILDING,-79.91569,43.24522,
2614,SANATORIUM opposite BROW BUILDING,-79.91568,43.24521,
2608,SANATORIUM opposite EVEL PAVILION,-79.91469,43.24016,
2610,SANATORIUM opposite REDFERN,-79.91495,43.24160,
2621,SANATORIUM opposite WEST 22ND,-79.90301,43.23408,
2623,SANATORIUM opposite WEST 24TH,-79.90517,43.23460,
2625,SANATORIUM opposite WEST 26TH,-79.90746,43.23518,
2605,SANATORIUM opposite WEST 33RD,-79.91399,43.23676,
2628,SANATORIUM opposite WILCOX BUILDING,-79.91543,43.23836,
355535,SANDHILL at OSPREY,-80.02336,43.19307,
355544,SANDHILL at TRADEWIND,-80.03052,43.19077,
355533,SANDHILL at TRADEWIND,-80.03019,43.19071,
2598,SAN PEDRO at SAN ANTONIO,-79.92636,43.24254,
2599,SAN PEDRO at SAN DIEGO,-79.92310,43.24235,
2600,SAN PEDRO at SAN MARCO,-79.92521,43.24255,
2601,SAN REMO at ARGO,-79.92775,43.24083,
2602,SAN REMO at LAVINA,-79.92675,43.23702,
2603,SAN REMO at LAVINA,-79.92665,43.23723,
2604,SAN REMO at SAN ANTONIO,-79.92711,43.23876,
2630,SCENIC at LYLE,-79.90400,43.24303,
2629,SCENIC LOOP,-79.92999,43.23408,
2631,SCENIC opposite LYLE,-79.90345,43.24306,
356084,SHAVER at CEASAR,-80.01367,43.20214,
2635,SHAVER at GARNER,-80.01215,43.19693,
2632,SHAVER at JERSEYVILLE,-80.01751,43.21447,
2639,SHAVER at WILSON,-80.01336,43.20090,
2638,SHAVER at WILSON,-80.01372,43.20200,
355411,SHAVER opposite LIDDYCOAT,-80.01308,43.19942,
2634,SHAVER opposite MORWICK,-80.01702,43.21231,
2633,SHAVER opposite SUMAC,-80.01694,43.21270,
2641,SHERMAN opposite FIFE,-79.83771,43.25267,
355736,SISTER ELISABETH at SISTER VARGA,-79.91218,43.20543,
355739,SISTER ELISABETH opposite SISTER VARGA,-79.91206,43.20543,
355764,SISTER ELIZABETH  AT PHARMACY,-79.91042,43.20541,
2643,SOUTH at LYNDEN,-79.94968,43.26011,
2645,SOUTH at OSLER,-79.94494,43.26090,
2646,SOUTH at OSLER,-79.94499,43.26100,
2644,SOUTH opposite LYNDEN,-79.95013,43.26011,
355884,SPRING CREEK at BLUE SKY,-79.87935,43.34523,
355859,SPRING CREEK at DUNDAS,-79.87858,43.34487,
356046,SPRING CREEK at NISKA,-79.88358,43.34840,
355861,SPRING CREEK at PARKSIDE,-79.88625,43.35043,
356047,SPRING CREEK opposite NISKA,-79.88327,43.34833,
2647,SPRING GARDENS at BOTANICAL,-79.87521,43.28906,
2648,SPRING GARDENS opposite WOODLAND,-79.87733,43.28802,
2655,STERLING at DALEWOOD,-79.91199,43.26219,
2654,STERLING at DALEWOOD,-79.91229,43.26208,
2658,STERLING at FORSYTH,-79.91598,43.26229,
2659,STERLING at HADDON,-79.91032,43.26196,
2660,STERLING at HADDON,-79.90991,43.26207,
2662,STERLING at UNIVERSITY,-79.91825,43.26225,
2661,STERLING at UNIVERSITY,-79.91825,43.26225,
2664,STERLING at UNIVERSITY,-79.91842,43.26230,
2663,STERLING at UNIVERSITY,-79.91842,43.26230,
2666,STINSON at EMERALD,-79.85664,43.24852,
2665,STINSON at EMERALD,-79.85613,43.24849,
2668,STINSON at ERIE,-79.85406,43.24783,
2667,STINSON at ERIE,-79.85381,43.24789,
2669,STINSON at GRANT,-79.85195,43.24742,
2671,STINSON at VICTORIA,-79.85873,43.24902,
2670,STINSON at VICTORIA,-79.85837,43.24904,
2672,STINSON at WELLINGTON,-79.86080,43.24966,
2673,STINSON at WENTWORTH,-79.85141,43.24716,
2652,ST. JOSEPHS AMBULATORY at KING,-79.77521,43.22064,
2653,ST. JOSEPH'S AMBULATORY ENTRANCE,-79.77398,43.22142,
2649,ST. JOSEPH'S at JAMES,-79.87206,43.24819,
355806,ST. JOSEPH'S at JAMES,-79.87206,43.24819,
2651,ST. JOSEPH'S at MOUNTWOOD,-79.87087,43.24792,
2650,ST. JOSEPH'S at MOUNTWOOD,-79.87087,43.24792,
2676,STONE CHURCH at ANCHOR,-79.82351,43.19508,
2677,STONE CHURCH at ARBOUR,-79.82311,43.19514,
2678,STONE CHURCH at BENJAMIN,-79.88572,43.21024,
2679,STONE CHURCH at BRIGADE,-79.87466,43.20734,
2705,STONE CHURCH at CHESLEY,-79.89733,43.21310,
2704,STONE CHURCH at CHESLEY,-79.89745,43.21326,
2706,STONE CHURCH at COURTLAND,-79.91384,43.21725,
2707,STONE CHURCH at COURTLAND,-79.91343,43.21731,
2681,STONE CHURCH at DARTNAL,-79.82938,43.19652,
2683,STONE CHURCH at DICENZO,-79.88498,43.20992,
2708,STONE CHURCH at GARTH,-79.90846,43.21585,
2709,STONE CHURCH at GARTH,-79.90853,43.21597,
2710,STONE CHURCH at GURNETT,-79.92218,43.21943,
2711,STONE CHURCH at HARROGATE,-79.93647,43.22691,
2395,STONE CHURCH at HERITAGE GREENE,-79.81246,43.19213,
355886,STONE CHURCH at HERITAGE GREENE,-79.81246,43.19213,
2712,STONE CHURCH at MATTHEWS,-79.90362,43.21473,
2685,STONE CHURCH at NEBO,-79.83553,43.19795,
2687,STONE CHURCH at NORMAJEAN,-79.85538,43.20259,
2714,STONE CHURCH at OLD GOLFLINKS,-79.93620,43.22671,
3250,STONE CHURCH at PINERIDGE,-79.88221,43.20919,
3251,STONE CHURCH at PINERIDGE,-79.88280,43.20948,
2688,STONE CHURCH at PRITCHARD,-79.81947,43.19415,
2689,STONE CHURCH at PRITCHARD,-79.81960,43.19434,
2690,STONE CHURCH at QUINN,-79.84528,43.20035,
2691,STONE CHURCH at RAMBO,-79.85484,43.20263,
355887,STONE CHURCH at REDHILL VALLEY PKWY,-79.81574,43.19274,
355853,STONE CHURCH at REDHILL VALLEY PKWY,-79.81574,43.19274,
355896,STONE CHURCH at REDHILL VALLEY PKWY,-79.81441,43.19258,
355897,STONE CHURCH at REDHILL VALLEY PKWY,-79.81441,43.19258,
2692,STONE CHURCH at REDMOND,-79.86513,43.20515,
2693,STONE CHURCH at RIDGEMOUNT,-79.86574,43.20516,
355286,STONE CHURCH at STONEHENGE,-79.93427,43.22413,
2694,STONE CHURCH at TAYMALL,-79.84587,43.20029,
2695,STONE CHURCH at UPPER GAGE,-79.85090,43.20150,
2696,STONE CHURCH at UPPER GAGE,-79.85023,43.20153,
2717,STONE CHURCH at UPPER JAMES,-79.89000,43.21128,
2718,STONE CHURCH at UPPER JAMES,-79.88994,43.21143,
356015,STONE CHURCH at UPPER MOUNT ALBION,-79.81096,43.19189,
356014,STONE CHURCH at UPPER MOUNT ALBION,-79.81096,43.19189,
2698,STONE CHURCH at UPPER OTTAWA,-79.84019,43.19921,
2697,STONE CHURCH at UPPER OTTAWA,-79.84139,43.19929,
2719,STONE CHURCH at UPPER PARADISE,-79.91891,43.21862,
2721,STONE CHURCH at UPPER PARADISE,-79.91987,43.21871,
2700,STONE CHURCH at UPPER SHERMAN,-79.85941,43.20371,
2699,STONE CHURCH at UPPER SHERMAN,-79.86005,43.20372,
2701,STONE CHURCH at UPPER WELLINGTON,-79.87923,43.20859,
2702,STONE CHURCH at UPPER WELLINGTON,-79.87974,43.20856,
2703,STONE CHURCH at UPPER WENTWORTH,-79.86874,43.20587,
2722,STONE CHURCH at WEST 5TH,-79.89327,43.21218,
2723,STONE CHURCH at WEST 5TH,-79.89380,43.21223,
2680,STONE CHURCH opposite BRIGADE,-79.87438,43.20742,
2682,STONE CHURCH opposite DARTNALL,-79.82953,43.19662,
355888,STONE CHURCH opposite HERITAGE GREENE,-79.81235,43.19203,
2396,STONE CHURCH opposite HERITAGE GREENE,-79.81235,43.19203,
356064,STONE CHURCH opposite MATTHEWS,-79.90403,43.21468,
2686,STONE CHURCH opposite NEBO,-79.83459,43.19783,
355732,STONE CHURCH opposite NEBO,-79.83442,43.19779,
2716,STONE CHURCH opposite OMNI,-79.92333,43.21957,
355287,STONE CHURCH opposite STONEHENGE,-79.93409,43.22420,
2725,STRATHCONA at YORK,-79.88321,43.26620,
2726,STRATHCONA LOOP,-79.88418,43.26398,
2724,STRATHCONA opposite TOM,-79.88364,43.26516,
2728,STRATHEARNE at BRITANNIA,-79.79813,43.24350,
355545,TRADEWIND at WILSON,-80.03134,43.19314,
355532,TRADEWIND at WILSON,-80.03141,43.19286,
2732,TURNBULL at TERRACE,-79.96207,43.25193,52A-Dundas First Solution (Inbound)
2730,TURNBULL opposite AUTUMN LEAF,-79.96530,43.25073,52A-Dundas First Solution (Inbound)
2731,TURNBULL opposite KINGS GATE,-79.96761,43.25017,52A-Dundas First Solution (Inbound)
356091,TWENTY at NEBO,-79.84392,43.17808,
356088,TWENTY opposite DARTNALL,-79.83710,43.17631,
2189,UNIVERSITY at FORSYTH,-79.91898,43.25856,
2190,UNIVERSITY at FORSYTH,-79.91887,43.25863,
2185,UNIVERSITY at LIFE SCIENCES,-79.91862,43.26100,
2186,UNIVERSITY opposite LIFE SCIENCES,-79.91880,43.26103,
355277,UNIVERSITY opposite LIFE SCIENCES,-79.91880,43.26103,
355260,UNIVERSITY PLAZA PLATFORM 1,-79.94281,43.25840,
2734,UNSWORTH at UPPER OTTAWA,-79.84184,43.19461,
remix-b9676219-34e4-40ef-85e8-53990cbe65af,Untitled Stop,-79.95419,43.26202,52A-Dundas First Solution (Inbound)
remix-7ca0868a-290a-4b58-be63-bef42ab0a60d,Untitled Stop,-79.95573,43.26270,
remix-e6a08398-c701-491d-b9ab-3acfc0f103ee,Untitled Stop,-79.97399,43.26085,
remix-36f44e01-a0ca-4549-82f4-b602659bdcd6,Untitled Stop,-79.97035,43.27143,
remix-3b3f62c7-eb56-44cb-b032-a2795421f7da,Untitled Stop,-79.94927,43.26147,
remix-9f989d14-2f43-4fe5-abf7-59ecf0100e1a,Untitled Stop,-79.94592,43.26178,
remix-cb26e70a-552b-4acd-bf1f-b46f0107d9ba,Untitled Stop,-79.97505,43.25908,
remix-4ad7ec23-291d-4a68-98fb-f25d74f99efc,Untitled Stop,-79.95549,43.25730,
remix-c17b84ad-f593-4d5c-80ed-4126a59606c1,Untitled Stop,-79.97194,43.27051,
remix-28818c0b-3736-46b7-8702-35b81ea60ef0,Untitled Stop,-79.95566,43.26255,
remix-3b740482-06ff-4676-9fa4-a5947e2a7ba7,Untitled Stop,-79.97166,43.25975,
remix-6159865d-2d1f-4d61-9646-10e4282bdf8f,Untitled Stop,-79.95419,43.26202,
remix-9ac3a9bf-0f96-4997-9006-48d11da35336,Untitled Stop,-79.95530,43.25723,
remix-aa22df5e-c80e-425c-b697-97db2ed2ffe9,Untitled Stop,-79.96559,43.26090,
remix-4315d88d-2032-4bfc-8199-4372ffc3849f,Untitled Stop,-79.96559,43.26090,
remix-f9d68990-0381-4a7c-bea8-ed0ff1c82586,Untitled Stop,-79.97166,43.25975,
remix-ef00837c-b009-47a4-89df-32f5ba5ab647,Untitled Stop,-79.97035,43.27143,
remix-c3317a3d-d9ba-4aa3-b971-c054ebbc54a6,Untitled Stop,-79.95566,43.26255,
remix-016b00dd-9c22-40aa-b488-55dc74a30133,Untitled Stop,-79.96575,43.26072,
remix-869ce867-c7eb-4086-8b97-e7f422a64c45,Untitled Stop,-79.95006,43.26183,
remix-90597199-0145-4664-8bdf-f959e321e69b,Untitled Stop,-79.95270,43.26453,
remix-167abda8-7d2d-4bff-9993-c90c195e0f28,Untitled Stop,-79.96575,43.26072,
remix-a3500591-90dc-4ff8-aaae-c4e74d427439,Untitled Stop,-79.95270,43.26453,
remix-d163d4aa-64ef-4a8e-ba1e-19dc015bd5dc,Untitled Stop,-79.95566,43.26255,
remix-b72fac34-c450-472c-99e7-e3ca5a9023b0,Untitled Stop,-79.94927,43.26147,
remix-c45e9872-f5c8-40ad-9158-845dba49e4d5,Untitled Stop,-79.95484,43.26470,
remix-e8607f95-a4c3-46d3-b582-65bc2953358f,Untitled Stop,-79.97752,43.26023,
remix-48388ff6-c95b-4269-a562-a197431be72f,Untitled Stop,-79.94326,43.27328,
remix-a1d0bbf4-46b7-435e-b69f-64bbdec71547,Untitled Stop,-79.94927,43.26147,
remix-625cc4a8-cd13-4d4d-b8ec-567fbfbe87a5,Untitled Stop,-79.95573,43.26270,
remix-295a4c96-fa09-4adf-9979-44e05229cc95,Untitled Stop,-79.94927,43.26147,
remix-18a01d6a-f49a-42a5-adea-3f58c7c20391,Untitled Stop,-79.97520,43.25905,
remix-3feec8a5-61e9-431a-9eae-6480aa954adb,Untitled Stop,-79.94592,43.26178,
remix-67985cfd-6347-45fe-8fcd-8717fd9a2730,Untitled Stop,-79.95484,43.26470,
remix-6c6213eb-e3e3-4d7a-b9cb-58c93a96fdf9,Untitled Stop,-79.95956,43.25383,
remix-48300e19-d81d-42dd-af6f-7e37d6d4bfd1,Untitled Stop,-79.95573,43.26270,
remix-533eb91a-c99c-447a-b637-2700c1216d98,Untitled Stop,-79.94315,43.27351,
remix-7a1dfda6-32ed-49f2-8169-ff8a4e9d6c6d,Untitled Stop,-79.97194,43.27051,
remix-b60a2e0b-a753-4d3c-b86e-3ed7bc448a5c,Untitled Stop,-79.95196,43.26444,
remix-52d6b8b1-7b6f-4209-9f01-a942548ffb96,Untitled Stop,-79.96575,43.26072,
remix-9ed7c824-5f8f-4bf6-bc10-d8b2b5d3701d,Untitled Stop,-79.97656,43.26072,
remix-437143a7-1a19-4edc-9749-4aa14546d8d2,Untitled Stop,-79.94592,43.26178,
remix-9faac56e-5cf3-49db-b0da-01fd48ce3541,Untitled Stop,-79.95006,43.26183,
remix-0edd6ecc-7e3e-44b9-a1a7-55459588fde0,Untitled Stop,-79.96559,43.26090,
remix-91f99cdf-2157-4a1d-b2f6-79bf0eebeb51,Untitled Stop,-79.97752,43.26023,
remix-055ac098-cb2f-485a-b0f0-bded73d1edb7,Untitled Stop,-79.97218,43.26094,
remix-e68f2ad9-b512-420c-a4c4-aa815d5a87ea,Untitled Stop,-79.97399,43.26085,
remix-ff511938-5cef-4fd3-8439-8855fee26efc,Untitled Stop,-79.95549,43.25730,
remix-5c3b75e1-ffed-4755-b275-d7e6906834dd,Untitled Stop,-79.95006,43.26183,
remix-34e4a96a-057d-407b-b88a-1f590f1857ff,Untitled Stop,-79.97505,43.25908,
355794,UPPER CENTENNIAL at GREEN MOUNTAIN,-79.76542,43.19917,
355793,UPPER CENTENNIAL at GREEN MOUNTAIN,-79.76533,43.19901,
355514,UPPER CENTENNIAL at HIGHLAND,-79.77326,43.18123,
355563,UPPER CENTENNIAL at HIGHLAND,-79.77303,43.18136,
355471,UPPER CENTENNIAL at MUD,-79.76952,43.18952,
355474,UPPER CENTENNIAL at MUD,-79.76931,43.19034,
355934,UPPER CENTENNIAL at SOUTH MOUNT HEALTH CENTRE,-79.77549,43.17602,
355933,UPPER CENTENNIAL opposite SOUTH MOUNT HEALTH CENTRE,-79.77542,43.17589,
2741,UPPER GAGE at ANNA CAPRI,-79.85103,43.19972,
2743,UPPER GAGE at BERYL,-79.84535,43.21287,
2745,UPPER GAGE at BRUCEDALE,-79.83801,43.23013,
2744,UPPER GAGE at BRUCEDALE,-79.83808,43.23042,
2746,UPPER GAGE at CONCESSION,-79.83520,43.23667,
2748,UPPER GAGE at CROCKETT,-79.83627,43.23465,
2750,UPPER GAGE at DALLAS,-79.84168,43.22215,
2751,UPPER GAGE at EDWINA,-79.84521,43.21382,
2752,UPPER GAGE at FENNELL,-79.83906,43.22827,
2753,UPPER GAGE at FENNELL,-79.83906,43.22758,
2754,UPPER GAGE at GOLDENGATE,-79.85271,43.19569,
2755,UPPER GAGE at LINC NORTH,-79.84622,43.21078,
2740,UPPER GAGE at LINC SOUTH,-79.84779,43.20724,
2735,UPPER GAGE at LINC SOUTH,-79.84802,43.20722,
2756,UPPER GAGE at LOCKTON,-79.84598,43.21198,
2757,UPPER GAGE at LOCONDER,-79.84900,43.20496,
2758,UPPER GAGE at LOCONDER,-79.84844,43.20557,
2759,UPPER GAGE at MACASSA,-79.84069,43.22441,
2760,UPPER GAGE at MOHAWK,-79.84295,43.21936,
2761,UPPER GAGE at MOHAWK,-79.84288,43.21886,
2762,UPPER GAGE at MUIR,-79.84396,43.21634,
2764,UPPER GAGE at NINTH,-79.84090,43.22345,
2765,UPPER GAGE at PEMBERTON,-79.84201,43.22092,
2766,UPPER GAGE at QUAIL,-79.84924,43.20373,
2768,UPPER GAGE at QUEENSDALE,-79.83717,43.23200,
2767,UPPER GAGE at QUEENSDALE,-79.83731,43.23221,
2769,UPPER GAGE at ROBERTSFIELD,-79.84966,43.20347,
2771,UPPER GAGE at ROYALVISTA,-79.85194,43.19778,
2770,UPPER GAGE at ROYALVISTA,-79.85200,43.19743,
2772,UPPER GAGE at RYMAL,-79.85389,43.19317,
2773,UPPER GAGE at RYMAL,-79.85343,43.19333,
2775,UPPER GAGE at SEVENTH,-79.83963,43.22636,
2774,UPPER GAGE at SEVENTH,-79.84024,43.22545,
2776,UPPER GAGE at SINENA,-79.85305,43.19512,
2778,UPPER GAGE at STONE CHURCH,-79.85039,43.20104,
2777,UPPER GAGE at STONE CHURCH,-79.85039,43.20182,
2779,UPPER GAGE at THORLEY,-79.84505,43.21362,
2742,UPPER GAGE opposite ANNA CAPRI,-79.85103,43.20010,
356035,UPPER GAGE opposite CROCKETT,-79.83583,43.23521,
2763,UPPER GAGE opposite MUIR,-79.84419,43.21626,
2781,UPPER HORNING at ADIS,-79.92827,43.22706,
2782,UPPER HORNING at AMALFI,-79.92607,43.22152,
2784,UPPER HORNING at ELENA,-79.92852,43.22839,
2785,UPPER HORNING at GUILDWOOD,-79.92792,43.22489,
2786,UPPER HORNING at MONTEAGLE,-79.92834,43.22836,
2787,UPPER HORNING at NELLIDA NORTH,-79.92839,43.22690,
2788,UPPER HORNING at NELLIDA SOUTH,-79.92811,43.22508,
2783,UPPER HORNING opposite AMALFI,-79.92611,43.22137,
355976,UPPER JAMES at ALDERLEA,-79.89649,43.19569,
2809,UPPER JAMES at ALDRIDGE,-79.88482,43.22145,
355497,UPPER JAMES at ALDRIDGE,-79.88482,43.22145,
2796,UPPER JAMES at BLOSSOM,-79.88787,43.21446,
2797,UPPER JAMES at BRUCEDALE,-79.87693,43.23942,
2798,UPPER JAMES at BRUCEDALE,-79.87702,43.23962,
2799,UPPER JAMES at CHIPMAN,-79.88797,43.21362,
2800,UPPER JAMES at CHRISTOPHER,-79.89588,43.19756,
2802,UPPER JAMES at DELTA,-79.89212,43.20431,
2804,UPPER JAMES at DUFF,-79.87590,43.24235,
2806,UPPER JAMES at FENNELL,-79.87796,43.23701,
2805,UPPER JAMES at FENNELL,-79.87790,43.23750,
2807,UPPER JAMES at HESTER,-79.88322,43.22473,
2794,UPPER JAMES at JAMESTON,-79.88425,43.22303,
2811,UPPER JAMES at KENNEDY,-79.89385,43.20174,
2814,UPPER JAMES at LOTUS,-79.88267,43.22677,
